name,type,address,lon,lat,pname,cityname,adname
喜茶(北京王府井喜悦购物中心店),餐饮服务;冷饮店;冷饮店,王府井大街301号喜悦购物中心B1-P033号商铺,116.410603,39.909903,北京市,北京市,东城区
霸王茶姬(北京王府井喜悦店),餐饮服务;冷饮店;冷饮店,北京城区王府井大街301号1层101内P012号,116.410561,39.909833,北京市,北京市,东城区
奈雪的茶(王府井喜悦购物中心店),餐饮服务;冷饮店;冷饮店,东华门街道王府井大街301号王府井喜悦购物中心B1-P031,116.410988,39.909680,北京市,北京市,东城区
茶百道(北京王府井喜悦中心店),餐饮服务;休闲餐饮场所;休闲餐饮场所,王府井大街301号G-B1-P030(王府井地铁站F1东口步行190米),116.410594,39.909954,北京市,北京市,东城区
瑞幸咖啡(王府井喜悦店),餐饮服务;咖啡厅;咖啡厅,王府井大街301号王府井喜悦购物中心B2层P029号,116.410563,39.909897,北京市,北京市,东城区
LELECHA乐乐茶(王府井喜悦店),餐饮服务;冷饮店;冷饮店,东华门街道王府井大街301号(王府地铁站F1东口步行70米)王府巷喜悦购物中心负一层,116.410500,39.909930,北京市,北京市,东城区
喜茶(北京东方新天地店),餐饮服务;冷饮店;冷饮店,长安街1号东方新天地LG17号商铺,116.412893,39.909235,北京市,北京市,东城区
LINLEE·手打柠檬茶(王府井喜悦店),餐饮服务;冷饮店;冷饮店,王府井大街301号王府井喜悦购物中心B1层,116.410709,39.909872,北京市,北京市,东城区
兰熊鲜奶(东方新天地店),餐饮服务;冷饮店;冷饮店,东长安街1号北京东方新天地LG层FF01,116.412387,39.909517,北京市,北京市,东城区
蜜雪冰城(王府井喜悦店),餐饮服务;冷饮店;冷饮店,王府井大街301-1号1层1号,116.410892,39.910370,北京市,北京市,东城区
牛茶燕窝饮品(东方新天地店),餐饮服务;冷饮店;冷饮店,长安街东方新天地地铁层B1层第三区EE06B,116.414330,39.909490,北京市,北京市,东城区
垂涎冰淇淋·茶饮(王府井喜悦店),餐饮服务;冷饮店;冷饮店,东城区王府井喜悦购物中心地下一层(垂涎冰淇淋),116.410557,39.909902,北京市,北京市,东城区
喜茶(北京前门大街店),餐饮服务;冷饮店;冷饮店,前门大街2号一层103(前门地铁站I西南口步行80米),116.398255,39.898173,北京市,北京市,东城区
裕莲茶楼(北京apm店),餐饮服务;冷饮店;冷饮店,王府井大街138号APMB1层B109-B110、B109A,116.412001,39.914799,北京市,北京市,东城区
长春堂顺时而饮(前门店),餐饮服务;餐饮相关场所;餐饮相关,北京城区鲜鱼口街69号(前门地铁站G东南口步行340米),116.400806,39.896380,北京市,北京市,东城区
李先生牛肉面大王(北京崇文门西大街餐厅),餐饮服务;快餐厅;快餐厅,崇文门西大街2号崇文门饭店2-2,116.417619,39.900634,北京市,北京市,东城区
煮叶(北京apm店),餐饮服务;冷饮店;冷饮店|餐饮服务;中餐厅;中餐厅,王府井大街138号B1层B107号,116.412583,39.914965,北京市,北京市,东城区
煮叶(东方广场店),餐饮服务;休闲餐饮场所;休闲餐饮场所,北京城区东长安街1号北京东方新天地商场地铁层BB78号,116.416080,39.909420,北京市,北京市,东城区
喜茶(北京apm店),餐饮服务;冷饮店;冷饮店,王府井大街138号北京apm B1层B103A号商铺,116.412444,39.915228,北京市,北京市,东城区
CHAGEE霸王茶姬(北京王府井APM店),餐饮服务;冷饮店;冷饮店,王府井大街138号北京apmB1层,116.412681,39.915039,北京市,北京市,东城区
luckin coffee 瑞幸咖啡(廊房头条店),餐饮服务;咖啡厅;咖啡厅,北京城区廊房头条2号院2号楼一层,116.397116,39.897472,北京市,北京市,西城区
茉莉奶白(北京王府井APM店),餐饮服务;冷饮店;冷饮店,王府井大街138号东安市场B1层(金鱼胡同地铁站出入口旁),116.412017,39.914413,北京市,北京市,东城区
CoCo都可(王府井APM店),餐饮服务;冷饮店;冷饮店,王府井大街138号新东安广场四层L426A,116.411877,39.913865,北京市,北京市,东城区
1点点(国瑞购物中心店),餐饮服务;冷饮店;冷饮店,崇文门外大街18号国瑞购物中心G-40,116.419213,39.898029,北京市,北京市,东城区
喜茶(北京东城崇文门摩方店),餐饮服务;冷饮店;冷饮店,崇文门合景摩方购物中心1层102,116.417629,39.899593,北京市,北京市,东城区
CHAGEE霸王茶姬(北京东方新天地店),餐饮服务;冷饮店;冷饮店,东长安街1号东方新天地东门首层第五区AA67E,116.416872,39.909616,北京市,北京市,东城区
爷爷不泡茶NOYEYENOTEA(北京王府井东安门店),餐饮服务;餐饮相关场所;餐饮相关,东安门大街53号(金鱼胡同地铁站C西南口步行210米),116.408066,39.915533,北京市,北京市,东城区
沪上阿姨·精选茶饮(北京国瑞城店),餐饮服务;冷饮店;冷饮店,北京城区崇文门外大街18号院1幢GZD-21号院铺,116.419687,39.898269,北京市,北京市,东城区
柠季·手打柠檬茶(北京王府井APM旗舰店),餐饮服务;冷饮店;冷饮店,王府井大街138号北京APM购物中心6楼豆之屋旁边,116.412071,39.914864,北京市,北京市,东城区
蜜雪冰城(国瑞购物中心店),餐饮服务;冷饮店;冷饮店,崇文门外大街18号1幢地下一层一点点奶茶旁边,116.419194,39.898231,北京市,北京市,东城区
喜茶(北京崇文门国瑞城店),餐饮服务;冷饮店;冷饮店,北京城区崇文门外大街18号1幢F1-27号号商铺,116.419367,39.898935,北京市,北京市,东城区
CHAGEE霸王茶姬(北京国瑞城店),餐饮服务;冷饮店;冷饮店,崇文门外大街18号便宜坊大厦一层18-4,116.419315,39.898730,北京市,北京市,东城区
LINLEE·手打柠檬茶(王府井APM店),餐饮服务;冷饮店;冷饮店,王府井大街138号apm五层(小大董旁),116.411959,39.914316,北京市,北京市,东城区
爷爷不泡茶NOYEYENOTEA(北京崇文门搜秀店),餐饮服务;冷饮店;冷饮店,崇文门外大街40号1幢1层115-116A号,116.419191,39.896594,北京市,北京市,东城区
茶百道(北京东城国瑞购物中心店),餐饮服务;冷饮店;冷饮店,崇文门国瑞购物中心G层宝食港超级美食街FC-31,116.419656,39.898152,北京市,北京市,东城区
蜜雪冰城(新怡商务楼店),餐饮服务;冷饮店;冷饮店,崇文门外大街5号(崇文门地铁站H西南口步行360米),116.416916,39.897494,北京市,北京市,东城区
喜茶(北京崇文门新世界店),餐饮服务;冷饮店;冷饮店,崇文门外大街3号新世界百货一期一层L01F001号,116.417929,39.898756,北京市,北京市,东城区
瑞幸咖啡(澳门中心店),餐饮服务;咖啡厅;咖啡厅,北京城区王府井东街8号澳门中心一层L117,116.413065,39.914684,北京市,北京市,东城区
茉酸奶( 北京搜秀城店 ),餐饮服务;冷饮店;冷饮店,崇文门外大街40号搜秀购物广场F1层,116.419374,39.896498,北京市,北京市,东城区
1点点(前门店),餐饮服务;冷饮店;冷饮店,煤市街弓字胡同21号(前门地铁站C西南口步行360米),116.394437,39.897922,北京市,北京市,西城区
茶百道(北京市前门大街店),餐饮服务;冷饮店;冷饮店,北京城区粮食店街38号,116.397682,39.894307,北京市,北京市,西城区
茉莉奶白(北京崇文门搜秀店),餐饮服务;冷饮店;冷饮店,崇文门外大街40号一层110A,116.419325,39.896568,北京市,北京市,东城区
茶满方庭(崇文门新世界百货2期店),餐饮服务;冷饮店;冷饮店,崇文门外大街3号新世界百货二期1层进大门直行30米,116.417247,39.896478,北京市,北京市,东城区
爷爷不泡茶NOYEYENOTEA(北京大栅栏店),餐饮服务;冷饮店;冷饮店,大栅栏西街15号,116.393800,39.895463,北京市,北京市,西城区
luckin coffee 瑞幸咖啡(东华门大街店),餐饮服务;休闲餐饮场所;休闲餐饮场所,北京城区东华门大街与智德前巷交叉口西南60米,116.404525,39.915025,北京市,北京市,东城区
蜜雪冰城(前门大街店),餐饮服务;冷饮店;冷饮店,北京市东城区前门大街115号一层0105A,116.398088,39.893790,北京市,北京市,东城区
茶百道(北京王府井银泰in88店),餐饮服务;冷饮店;冷饮店,王府井大街88号银泰in88地下一层,116.411681,39.916064,北京市,北京市,东城区
LINLEE·手打柠檬茶(西城前门店),餐饮服务;冷饮店;冷饮店,北京城区前门西大街正阳市场1号楼肯德基东侧,116.395225,39.899675,北京市,北京市,西城区
兰熊鲜奶(北京市百货大楼店),餐饮服务;冷饮店;冷饮店,王府井大街253号北京市百货大楼B1层,116.410318,39.914041,北京市,北京市,东城区
CoCo都可(搜秀城一店),餐饮服务;冷饮店;冷饮店,崇文门外大街搜秀40号一层第106柜位,116.419224,39.896830,北京市,北京市,东城区
茉酸奶(王府井店),餐饮服务;冷饮店;冷饮店,王府井大街88号银泰in88地下一层1026号,116.411759,39.915990,北京市,北京市,东城区
蜜雪冰城(前门皮影主题店),餐饮服务;冷饮店;冷饮店,北京城区前门大街2号一层105室,116.398227,39.898383,北京市,北京市,东城区
茶百道(北京王府国际店),餐饮服务;休闲餐饮场所;休闲餐饮场所,王府井大街219号B1,116.410405,39.915694,北京市,北京市,东城区
LINLEE·手打柠檬茶(王府井银泰in88店),餐饮服务;冷饮店;冷饮店,王府井银泰in88B1022,116.411545,39.915733,北京市,北京市,东城区
沪上阿姨·精选茶饮(北京大栅栏店),餐饮服务;冷饮店;冷饮店,北京城区大栅栏街18号1幢1层05、08,116.396591,39.895845,北京市,北京市,西城区
luckin coffee 瑞幸咖啡(东单北大街店),餐饮服务;餐饮相关场所;餐饮相关,北京城区东单北大街92号(东单地铁站F东北口步行320米),116.418163,39.911315,北京市,北京市,东城区
兰熊鲜奶(国瑞购物中心店),餐饮服务;冷饮店;冷饮店,崇文门外大街18号国瑞购物中心G层,116.420248,39.898778,北京市,北京市,东城区
蜜雪冰城(东安门大街店),餐饮服务;冷饮店;冷饮店,东安门大街36号(金鱼胡同地铁站C西南口步行110米),116.409362,39.915304,北京市,北京市,东城区
茶百道(北京东城故宫东华门店),餐饮服务;冷饮店;冷饮店,北京城区东华门大街83号2幢,116.403124,39.915301,北京市,北京市,东城区
LINLEE·手打柠檬茶(国瑞购物中心店),餐饮服务;冷饮店;冷饮店,崇文门外大街18号国瑞购物中心B1层FC-14号铺,116.419625,39.898325,北京市,北京市,东城区
李先生牛肉面大王(北京协和医院餐厅),餐饮服务;快餐厅;快餐厅,东单北大街69号-11,116.417789,39.911185,北京市,北京市,东城区
luckin coffee 瑞幸咖啡(北京市百货大楼店),餐饮服务;休闲餐饮场所;休闲餐饮场所,王府井大街253号北京百货大楼2层,116.409825,39.913854,北京市,北京市,东城区
新加坡斯味洛奶茶(国瑞购物中心店),餐饮服务;餐饮相关场所;餐饮相关,崇文门外大街18号国瑞购物中心F1层,116.419325,39.898775,北京市,北京市,东城区
蜜雪冰城(大栅栏西街店),餐饮服务;冷饮店;冷饮店,大栅栏街21号1幢,116.395898,39.895964,北京市,北京市,西城区
椿风·养身茶饮(北京APM店),餐饮服务;餐饮相关场所;餐饮相关,王府井大街138号北京apmB2层(金鱼胡同地铁站出入口旁),116.412066,39.914930,北京市,北京市,东城区
LINLEE·手打柠檬茶(崇文门搜秀店),餐饮服务;冷饮店;冷饮店,崇文门外大街40号搜秀城1层107B(搜秀城北门内),116.419373,39.896576,北京市,北京市,东城区
沪上阿姨鲜果茶(北京丰泰中心店),餐饮服务;冷饮店;冷饮店,珠市口东大街2号1层115室,116.416208,39.892596,北京市,北京市,东城区
瑞幸咖啡(国瑞购物中心店),餐饮服务;咖啡厅;咖啡厅,崇文门外大街18号国瑞购物中心负一层,116.419479,39.898242,北京市,北京市,东城区
Yes Lemon就是柠·手打柠檬茶(北京崇文门搜秀城店),餐饮服务;冷饮店;冷饮店,北京城区崇文门外大街40号一层西北03A,116.419325,39.896568,北京市,北京市,东城区
蜜雪冰城(王府井店),餐饮服务;冷饮店;冷饮店,王府井大街世纪大厦A座(金鱼胡同地铁站C西南口步行490米),116.410813,39.919079,北京市,北京市,东城区
长春堂顺时而饮(北京站店),餐饮服务;冷饮店;冷饮店,北京城区北京站东街与北京站街交叉口南20米,116.427247,39.904902,北京市,北京市,东城区
阿姨奶茶(前门西河沿街店),餐饮服务;餐饮相关场所;餐饮相关,前门西河沿街与煤市街交叉口西40米,116.394916,39.898900,北京市,北京市,西城区
瑞幸咖啡(大栅栏西街店),餐饮服务;休闲餐饮场所;休闲餐饮场所,北京城区煤市街与大齐家胡同交叉口西80米,116.393663,39.895234,北京市,北京市,西城区
垂涎冰淇淋·茶饮(北京市百货大楼店),餐饮服务;冷饮店;冷饮店,王府井大街255号王府井百货大楼北馆二层,116.410262,39.913983,北京市,北京市,东城区
蜜雪冰城(煤市街店),餐饮服务;冷饮店;冷饮店,北京城区煤市街7号(前门地铁站C西南口步行440米),116.394259,39.897007,北京市,北京市,西城区
奈雪的茶(雍贵中心店),餐饮服务;冷饮店;冷饮店,广渠门内大街41号1层43-04室,116.428722,39.894608,北京市,北京市,东城区
李先生牛肉面大王(北京广渠门内餐厅),餐饮服务;快餐厅;快餐厅,广渠门内幸福大街通正国际大厦80-5,116.428489,39.892942,北京市,北京市,东城区
茉莉奶白(北京隆福寺店),餐饮服务;冷饮店;冷饮店,北京城区隆福寺前街1号1层D115号WL1-23-1,116.414625,39.924835,北京市,北京市,东城区
瑞幸咖啡(新成文化大厦店),餐饮服务;餐饮相关场所;餐饮相关,新成文化大厦(磁器口地铁站A西北口旁),116.418121,39.893627,北京市,北京市,东城区
喜茶(北京东四隆福寺店),餐饮服务;冷饮店;冷饮店,隆福寺前街1号隆福寺南坊WL1-11,116.414093,39.924992,北京市,北京市,东城区
蜜雪冰城(灯市口地铁站店),餐饮服务;冷饮店;冷饮店,西堂子胡同1号西堂子胡同1号院,116.417553,39.916567,北京市,北京市,东城区
CozyCow现制乳品(隆福大厦店),餐饮服务;冷饮店;冷饮店,隆福寺街95号北京隆福寺街区L1层,116.414195,39.925530,北京市,北京市,东城区
时珍序·古法茶饮(北京隆福寺店),餐饮服务;冷饮店;冷饮店,隆福寺街95号北京隆福寺街区L1层,116.413673,39.925029,北京市,北京市,东城区
LINLEE·手打柠檬茶(东城隆福寺店),餐饮服务;冷饮店;冷饮店,隆福寺南坊A座1层WL1-05-1,116.413792,39.924709,北京市,北京市,东城区
贡茶(赵堂子胡同店),餐饮服务;冷饮店;冷饮店,赵堂子胡同与朝阳门南小街交叉口东40米,116.427318,39.914310,北京市,北京市,东城区
蜜雪冰城(东华门大街店),餐饮服务;冷饮店;冷饮店,东华门大街56号,116.404019,39.915118,北京市,北京市,东城区
裕莲茶楼(北京西单更新场店),餐饮服务;休闲餐饮场所;休闲餐饮场所,西长安街街道西单北大街180号L106号,116.375475,39.908375,北京市,北京市,西城区
蜜雪冰城,餐饮服务;冷饮店;冷饮店,东单北大街与北极阁路交叉口东北40米,116.418209,39.909981,北京市,北京市,东城区
蜜雪冰城(北京天安门广场观旗宾馆店),餐饮服务;餐饮相关场所;餐饮相关,前门西大街正阳市场1号楼1层106,116.395527,39.899560,北京市,北京市,西城区
luckin coffee 瑞幸咖啡(王府井步行街店),餐饮服务;咖啡厅;咖啡厅,北京城区灯市口大街与东四南大街交叉口西南20米,116.417444,39.918651,北京市,北京市,东城区
蜜雪冰城(灯市口店),餐饮服务;冷饮店;冷饮店,灯市口大街1号(灯市口地铁站A西北口步行170米),116.417494,39.919049,北京市,北京市,东城区
蜜雪冰城(北京站东街店),餐饮服务;冷饮店;冷饮店,北京站东街与南裱褙胡同交叉口东120米,116.430463,39.905271,北京市,北京市,东城区
luckin coffee 瑞幸咖啡(东四地铁站C口店),餐饮服务;咖啡厅;咖啡厅,北京城区东四北大街与朝阳门内大街交叉口南60米,116.417726,39.923716,北京市,北京市,东城区
瑞幸咖啡(红桥市场店),餐饮服务;咖啡厅;咖啡厅,北京城区天坛东路46号迤北红桥市场负一层大堂,116.420627,39.886036,北京市,北京市,东城区
蜜雪冰城(广渠门内大街辅路店),餐饮服务;冷饮店;冷饮店,广渠门内大街29号11幢一层021号,116.434586,39.893995,北京市,北京市,东城区
蜜雪冰城(北京虎坊桥店),餐饮服务;餐饮相关场所;餐饮相关,虎坊路大街甲2-2号(虎坊桥地铁站C东南口步行160米),116.385110,39.888746,北京市,北京市,西城区
兰熊鲜奶(隆福寺店),餐饮服务;甜品店;甜品店,隆福寺前街1号1层D115号WL1-23-2,116.414600,39.924874,北京市,北京市,东城区
luckin coffee 瑞幸咖啡(东海中心店),餐饮服务;咖啡厅;咖啡厅,北京城区建国门外大街24号东海中心大厦一层大堂,116.438945,39.907290,北京市,北京市,朝阳区
内蒙古宾馆·元大都奶茶餐吧,餐饮服务;中餐厅;中餐厅,美术馆后街71号内蒙古宾馆,116.408756,39.928283,北京市,北京市,东城区
瑞幸咖啡(天安国汇大厦店),餐饮服务;咖啡厅;咖啡厅,北京城区西绒线胡同28号天安国汇大厦一层,116.376165,39.903652,北京市,北京市,西城区
381奶茶(东四北大街店),餐饮服务;冷饮店;冷饮店,东四北大街381号(东四地铁站B东北口步行310米),116.417176,39.927509,北京市,北京市,东城区
沪上阿姨·精选茶饮(北京汉光百货店),餐饮服务;冷饮店;冷饮店,西单北大街176号汉光百货F8层,116.375549,39.909468,北京市,北京市,西城区
奈喜乐·分子果汁(崇文门店),餐饮服务;甜品店;甜品店,东花市南里富贵园一区1号楼1单元101号,116.435361,39.897106,北京市,北京市,东城区
蜜雪冰城(天桥百货商场店),餐饮服务;冷饮店;冷饮店,永定门内大街1号天桥百货商场F1层,116.398328,39.880626,北京市,北京市,西城区
CHAGEE霸王茶姬(霸王茶姬北京西单更新厂店),餐饮服务;休闲餐饮场所;休闲餐饮场所,北京城区西单北大街180号地下一层B101,116.374975,39.908575,北京市,北京市,西城区
淡马茶坊(北京西单更新场店),餐饮服务;茶艺馆;茶艺馆|餐饮服务;冷饮店;冷饮店,北京城区西单北大街180号地下一层B121号,116.374980,39.908270,北京市,北京市,西城区
长春堂顺时而饮(东四五条店),餐饮服务;冷饮店;冷饮店,东四北大街376号1幢1层103室,116.417577,39.928547,北京市,北京市,东城区
喜茶(北京庄胜崇光店),餐饮服务;餐饮相关场所;餐饮相关,宣武门外大街8号(宣武门地铁站G东南口步行70米),116.375439,39.897430,北京市,北京市,西城区
桃梨里·紫砂炖梨·小吊梨汤·姨妈热饮(广渠门店),餐饮服务;冷饮店;冷饮店,东花市南里东区8号楼1层107,116.436565,39.895450,北京市,北京市,东城区
唐与茶(北京图书大厦店),餐饮服务;冷饮店;冷饮店,西长安街17号二层南侧01号(西单地铁站C东北口旁),116.377112,39.907833,北京市,北京市,西城区
CHAGEE霸王茶姬(北京银河SOHO店),餐饮服务;冷饮店;冷饮店,南竹杆胡同2号银河SOHO购物中心B座1F层20123,116.432510,39.921202,北京市,北京市,东城区
luckin coffee 瑞幸咖啡(西单蒙藏学校旧址店),餐饮服务;咖啡厅;咖啡厅,北京城区小石虎胡同33号(西单地铁站F1西北口步行290米),116.374302,39.909984,北京市,北京市,西城区
CHAGEE霸王茶姬(北京宣武庄胜百货店),餐饮服务;冷饮店;冷饮店,宣武门外大街8号楼1层101-2106,116.375520,39.895899,北京市,北京市,西城区
茶话弄(北京宣武门庄胜广场店),餐饮服务;休闲餐饮场所;休闲餐饮场所,宣武门外大街8号楼庄胜广场负1层-101-B1B16,116.375131,39.897565,北京市,北京市,西城区
爷爷不泡茶NOYEYENOTEA(北京银河 SOHO 店)(暂停营业),餐饮服务;冷饮店;冷饮店,南竹杆胡同2号银河SOHO购物中心1F层,116.432850,39.920948,北京市,北京市,东城区
蜜雪冰城(雅宝路店),餐饮服务;冷饮店;冷饮店,E园共享办公正门东50米,116.437289,39.915703,北京市,北京市,朝阳区
兰熊鲜奶(庄胜百货店),购物服务;购物相关场所;购物相关场所,宣武门外大街8号庄胜崇光百货宣武门店B1层,116.375443,39.897508,北京市,北京市,西城区
隆延茶鋪(建国门赛特+购物中心店),餐饮服务;冷饮店;冷饮店,建国门外大街22号赛特购物中心F3层,116.441625,39.907625,北京市,北京市,朝阳区
茉酸奶(宣武门崇光百货店),餐饮服务;冷饮店;冷饮店,宣武门外大街8号庄胜崇光百货商场一楼,116.375260,39.895749,北京市,北京市,西城区
阿水大杯茶(北京西单约饭街店),餐饮服务;冷饮店;冷饮店,西单北大街华威大厦七层,116.374668,39.911653,北京市,北京市,西城区
LINLEE·手打柠檬茶(西单华威店),餐饮服务;冷饮店;冷饮店,北京城区西单北大街130-152号8层,116.374556,39.911486,北京市,北京市,西城区
1点点(银河SOHO店),餐饮服务;冷饮店;冷饮店,南竹杆胡同2号银河SOHOA座,116.433617,39.921649,北京市,北京市,东城区
隆延茶铺·正统奶茶(朝阳门SOHO店),餐饮服务;休闲餐饮场所;休闲餐饮场所,朝阳门街道朝阳门内大街2号朝阳门SOHO一期地下商业A115-2,116.432894,39.922414,北京市,北京市,东城区
奈雪的茶(西单大悦城店),餐饮服务;冷饮店;冷饮店|购物服务;购物相关场所;购物相关场所,西单北大街131号西单大悦城购物中心4F,116.373493,39.910803,北京市,北京市,西城区
沪上阿姨·精选茶饮(西单华威约饭街店),餐饮服务;冷饮店;冷饮店,北京城区西单北大街130-152号7层701号,116.374556,39.911486,北京市,北京市,西城区
1点点(北京君太百货店),餐饮服务;冷饮店;冷饮店,西单北大街133号君太百货5层B-02号,116.373278,39.909415,北京市,北京市,西城区
喜茶(北京赛特+购物中心店),餐饮服务;冷饮店;冷饮店,建国门外大街22号,116.441826,39.907381,北京市,北京市,朝阳区
爷爷不泡茶NOYEYENOTEA(北京西单大悦城店),餐饮服务;冷饮店;冷饮店,西单北大街131号2F-49B,116.372816,39.910354,北京市,北京市,西城区
LINLEE·手打柠檬茶(西单君太百货店),餐饮服务;冷饮店;冷饮店,北京城区西单北大街133号君太百货B1F层第E-09号君太百货B1层,116.373182,39.909573,北京市,北京市,西城区
LINLEE·手打柠檬茶(崇光百货店),餐饮服务;冷饮店;冷饮店,宣武门外大街8号庄胜崇光百货商场B1C12-2,116.375341,39.897761,北京市,北京市,西城区
蜜雪冰城(西单店),餐饮服务;冷饮店;冷饮店,西单北大街104号(灵境胡同地铁站C东南口步行70米),116.373959,39.915131,北京市,北京市,西城区
茉莉奶白(西单大悦城店),餐饮服务;冷饮店;冷饮店,西单北大街大悦城4层(西单地铁站F1西北口步行320米),116.372742,39.911411,北京市,北京市,西城区
蜜雪冰城(朝阳门SOHO店),餐饮服务;冷饮店;冷饮店,南竹杆胡同1号朝阳门SOHOF地下1层116,116.433007,39.922356,北京市,北京市,东城区
煮叶(大吉巷店),餐饮服务;中餐厅;中餐厅,骡马市大街264号东门4号楼一层F113,116.376965,39.887915,北京市,北京市,西城区
LELECHA乐乐茶(北京西单大悦城店),餐饮服务;冷饮店;冷饮店,北京城区西单北大街西单大悦城131号6f-02b,116.372998,39.910470,北京市,北京市,西城区
蜜雪冰城(富卓商厦店),餐饮服务;冷饮店;冷饮店,宣武门外大街32号富卓商厦F1层,116.375265,39.893093,北京市,北京市,西城区
茉莉奶白(北京中海大吉巷店),餐饮服务;冷饮店;冷饮店,广安门内大街与菜市口大街交叉口西北20米,116.374225,39.889075,北京市,北京市,西城区
茶百道(沃尔玛门店),餐饮服务;冷饮店;冷饮店,宣武门外大街36号1幢1层F1F0017F1F0002-B号,116.375363,39.893126,北京市,北京市,西城区
兰熊鲜奶(西单大悦城店),餐饮服务;冷饮店;冷饮店|购物服务;购物相关场所;购物相关场所,西单北大街西单大悦城6F-16A,116.372942,39.911364,北京市,北京市,西城区
CHAGEE霸王茶姬(中海大吉巷店),餐饮服务;休闲餐饮场所;休闲餐饮场所,大吉中街东口,116.377375,39.887525,北京市,北京市,西城区
山茶赋·新中式鲜奶茶(西单华威店),餐饮服务;冷饮店;冷饮店,北京城区西单北大街130-152号西单购物中心6层33号,116.374480,39.911312,北京市,北京市,西城区
么么侠的茶(赛特+购物中心店),餐饮服务;冷饮店;冷饮店,建国门外大街22号赛特+购物中心F1层,116.441641,39.907608,北京市,北京市,朝阳区
luckin coffee 瑞幸咖啡(北京中海大吉巷商业街区店),餐饮服务;咖啡厅;咖啡厅,北京城区骡马市大街264号中海大吉巷负一层,116.375946,39.888503,北京市,北京市,西城区
喜茶(北京朝阳门外店),餐饮服务;冷饮店;冷饮店,北京城区朝外大街路26号1层F1-08室,116.441183,39.921738,北京市,北京市,朝阳区
喜茶(北京朝阳门SOHO店),餐饮服务;冷饮店;冷饮店,朝阳门内大街朝阳门SOHOB1层A115-1,116.432604,39.923718,北京市,北京市,东城区
茉酸奶(华威大厦店)(暂停营业),餐饮服务;冷饮店;冷饮店,西长安街街道西单北大街华威大厦344商铺,116.374572,39.911414,北京市,北京市,西城区
陆藜开了个方子(北京银河SOHO店),餐饮服务;休闲餐饮场所;休闲餐饮场所,北京城区南竹杆胡同2号银河soho商场,116.433229,39.921575,北京市,北京市,东城区
奈雪的茶(北京国雅大厦PRO店),餐饮服务;冷饮店;冷饮店,雅宝路1号国雅大厦一层1003号商铺奈雪的茶,116.440705,39.916013,北京市,北京市,朝阳区
煮叶(悠唐购物中心店),餐饮服务;冷饮店;冷饮店|餐饮服务;中餐厅;中餐厅,三丰北里2号楼悠唐购物中心F2层F2-26,116.438173,39.921754,北京市,北京市,朝阳区
长春堂顺时而饮(天坛南门店),餐饮服务;餐饮相关场所;餐饮相关,永定门东街东里东区西门旁,116.413560,39.873473,北京市,北京市,东城区
luckin coffee 瑞幸咖啡(富力·摩根中心店),餐饮服务;咖啡厅;咖啡厅,北京城区太平街6富力·摩根中心F1层,116.387638,39.881468,北京市,北京市,西城区
淡马茶坊(北京大吉巷店),餐饮服务;冷饮店;冷饮店,骡马市大街20号院B1层B158,116.376062,39.888537,北京市,北京市,西城区
沪上阿姨·精选茶饮(北京西西友谊商城店),餐饮服务;休闲餐饮场所;休闲餐饮场所,北京城区西单北大街109号三层AF3-08,116.372932,39.914063,北京市,北京市,西城区
luckin coffee 瑞幸咖啡(西什库大街店),餐饮服务;咖啡厅;咖啡厅,北京城区西什库大街与西安门大街交叉口北260米,116.379952,39.924968,北京市,北京市,西城区
蜜雪冰城(陶然北岸·韵竹园店),餐饮服务;冷饮店;冷饮店,南横东街5-2号陶然北岸·韵竹园,116.382157,39.883471,北京市,北京市,西城区
CoCo都可(丰联广场店),餐饮服务;冷饮店;冷饮店,朝阳门外大街18号丰联商场B1层B103号商铺,116.438466,39.923536,北京市,北京市,朝阳区
BONJOUR本就(北 京西单大悦城店),餐饮服务;冷饮店;冷饮店,西单北大街131号6F-10号,116.372938,39.910921,北京市,北京市,西城区
蜜雪冰城(西单商业街店),餐饮服务;餐饮相关场所;餐饮相关,大木仓胡同129号,116.372750,39.911657,北京市,北京市,西城区
树夏(朝阳悠唐店),餐饮服务;冷饮店;冷饮店,三丰北里2号楼悠唐购物中心B1层,116.439927,39.921760,北京市,北京市,朝阳区
CHAGEE霸王茶姬(北京悠唐购物中心店),餐饮服务;冷饮店;冷饮店,朝阳门外大街三丰北里2号楼,116.438773,39.921830,北京市,北京市,朝阳区
KOI Thé(北京悠唐购物中心店),餐饮服务;冷饮店;冷饮店,悠唐购物中心1期,116.440059,39.921902,北京市,北京市,朝阳区
兰熊鲜奶(中海大吉巷店),餐饮服务;餐饮相关场所;餐饮相关,骡马市大街20号1区8栋b1(麦当劳),116.375967,39.888509,北京市,北京市,西城区
CHAGEE霸王茶姬(北京汇京双子座大厦店),餐饮服务;冷饮店;冷饮店|购物服务;专卖店;专营店,建国门外大街乙12号双子座购物中心F1层,116.448952,39.907638,北京市,北京市,朝阳区
东发道茶冰厅(悠唐购物中心1期店),餐饮服务;中餐厅;四川菜(川菜)|餐饮服务;冷饮店;冷饮店,北京城区三丰北里2号楼(外交部东南角)悠唐生活广场4层,116.439757,39.921835,北京市,北京市,朝阳区
喜茶(北京南锣鼓巷店),餐饮服务;冷饮店;冷饮店,南锣鼓巷76号(南锣鼓巷地铁站E西北口步行330米),116.403235,39.936709,北京市,北京市,东城区
茉莉奶白(悠唐购物中心店),餐饮服务;冷饮店;冷饮店,三丰路2号悠唐购物中心B1层,116.440015,39.921935,北京市,北京市,朝阳区
Yes Lemon就是柠·手打柠檬茶(北京西单大悦城店),餐饮服务;冷饮店;冷饮店,北京城区西单北大街131号西单大悦城F7,116.372908,39.911099,北京市,北京市,西城区
luckin coffee 瑞幸咖啡(陶然北岸·韵竹园店),餐饮服务;咖啡厅;咖啡厅,北京城区南横东街5-2号陶然北岸·韵竹园,116.384579,39.883646,北京市,北京市,西城区
1点点(陶然亭物美超市店),餐饮服务;餐饮相关场所;餐饮相关,太平街6号A003,116.387836,39.880212,北京市,北京市,西城区
长春堂顺时而饮(荷花市场店),餐饮服务;休闲餐饮场所;休闲餐饮场所,北京城区地安门西大街51号13幢,116.391784,39.934077,北京市,北京市,西城区
喜茶(北京君太百货店),餐饮服务;冷饮店;冷饮店,西单北大街133号北京君太百货2层A-10号(星巴克对面),116.373049,39.909941,北京市,北京市,西城区
茶百道(北京朝阳日坛店),餐饮服务;冷饮店;冷饮店,北京城区雅宝路1号国雅大厦负B1层B039,116.440304,39.916174,北京市,北京市,朝阳区
李茶的茶(THE BOX一盒朝外年轻力中心店),餐饮服务;餐饮相关场所;餐饮相关,朝外大街12号THE BOX 朝外|年轻力中心F1层,116.444969,39.922584,北京市,北京市,朝阳区
瑞幸咖啡(环球财讯中心店),餐饮服务;咖啡厅;咖啡厅,宣武门外大街甲1号一层103内01号,116.373275,39.898275,北京市,北京市,西城区
LINLEE·手打柠檬茶(朝阳悠唐购物中心店),餐饮服务;冷饮店;冷饮店,朝外街道悠唐购物中心B1层电梯旁(川成元麻辣香锅隔壁),116.439473,39.921954,北京市,北京市,朝阳区
蜜雪冰城(朝阳门外大街辅路店),餐饮服务;冷饮店;冷饮店,朝阳门外大街19号华普国际大厦F1层,116.438491,39.924725,北京市,北京市,朝阳区
顺时而饮(悠唐购物中心店),餐饮服务;冷饮店;冷饮店|餐饮服务;中餐厅;中餐厅,三丰北里5号楼悠唐购物中心4层,116.438364,39.921605,北京市,北京市,朝阳区
K22酸奶草莓(悠唐购物中心1期店),餐饮服务;冷饮店;冷饮店,三丰路2号悠唐购物中心B1层,116.439522,39.921767,北京市,北京市,朝阳区
茶话弄(北京地安门外大街店),餐饮服务;冷饮店;冷饮店,地安门外大街31号新地佰B1层-20(什刹海地铁站A1西北口旁),116.395251,39.937848,北京市,北京市,西城区
奈雪的茶(北京新地佰店),餐饮服务;冷饮店;冷饮店,地安门外大街31号新地佰商场一层奈雪的茶,116.395477,39.937951,北京市,北京市,西城区
茉酸奶(西单大悦城店),餐饮服务;冷饮店;冷饮店,西单大悦城5层(中国移动营业厅门口),116.372799,39.911223,北京市,北京市,西城区
沪上阿姨·精选茶饮(北京宣武门富卓商厦店)(暂停营业),餐饮服务;冷饮店;冷饮店,北京城区宣武门外大街32号1幢501,116.375175,39.893475,北京市,北京市,西城区
luckin coffee 瑞幸咖啡(复兴门内大街45号院店),餐饮服务;咖啡厅;咖啡厅,金融街街道复兴门内大街45-10号,116.370975,39.908725,北京市,北京市,西城区
兰熊鲜奶(悠唐购物中心店),餐饮服务;冷饮店;冷饮店,三丰路2号悠唐购物中心B1层,116.439472,39.921874,北京市,北京市,朝阳区
瑞幸咖啡,餐饮服务;咖啡厅;咖啡厅,北京城区张自忠路10号华人一品大厦F1层,116.410399,39.933114,北京市,北京市,东城区
CHAGEE霸王茶姬(后海店),餐饮服务;休闲餐饮场所;休闲餐饮场所,北京城区银锭桥16号(什刹海地铁站A2西北口步行330米),116.393798,39.938463,北京市,北京市,西城区
瑞幸咖啡,餐饮服务;咖啡厅;咖啡厅,北京城区朝阳门外大街22号泛利大厦B1层,116.439935,39.922817,北京市,北京市,朝阳区
瑞幸咖啡(国雅大厦店),餐饮服务;咖啡厅;咖啡厅,北京城区雅宝路1号国雅大厦,116.440707,39.915966,北京市,北京市,朝阳区
高大泡·新中式养生茶饮,餐饮服务;餐饮相关场所;餐饮相关,北京城区地安门东大街141号,116.396930,39.933690,北京市,北京市,东城区
瑞幸咖啡,餐饮服务;休闲餐饮场所;休闲餐饮场所,北京城区夕照寺中街4号epark夕照寺社区F1层,116.441826,39.889178,北京市,北京市,东城区
茶百道(北京西城地安门店),餐饮服务;冷饮店;冷饮店,北京城区地安门外大街31号新地佰B1-18号铺位,116.395555,39.937687,北京市,北京市,西城区
茉莉奶白(北京鼓楼店),餐饮服务;休闲餐饮场所;休闲餐饮场所,地安门外大街与鼓楼东大街交叉口东南60米,116.396175,39.939575,北京市,北京市,西城区
澄茶(陶然亭公园店),餐饮服务;餐饮相关场所;餐饮相关,太平街陶然亭公园东门南50米,116.387328,39.875596,北京市,北京市,西城区
荷田水铺(北京THE BOX店),生活服务;生活服务场所;生活服务场所,朝外大街12号THE BOX一盒朝外年轻力中心F3层,116.445000,39.922742,北京市,北京市,朝阳区
CHAGEE霸王茶姬(北京北锣鼓巷店),餐饮服务;冷饮店;冷饮店,鼓楼东大街125号,116.402796,39.940970,北京市,北京市,东城区
LINLEE·手打柠檬茶(西城区金融街店),餐饮服务;冷饮店;冷饮店,北京城区西单北大街106号,116.373954,39.914931,北京市,北京市,西城区
茶太良品(南锣鼓巷店),餐饮服务;餐饮相关场所;餐饮相关,帽儿胡同5号四合院南门东50米,116.403080,39.936493,北京市,北京市,东城区
喜茶(北京鼓楼店),餐饮服务;冷饮店;冷饮店,鼓楼东大街206号鼓楼园,116.399137,39.940479,北京市,北京市,东城区
星巴克(王府井喜悦店),餐饮服务;咖啡厅;星巴克咖啡,王府井大街301号王府井喜悦购物中心B2层MB235,116.410324,39.909953,北京市,北京市,东城区
星巴克(东方广场三店),餐饮服务;咖啡厅;星巴克咖啡,东长安街1号东方广场写字楼W1座一层P-W1(08-10)号店铺,116.412931,39.909328,北京市,北京市,东城区
fu3福叁咖啡(西兴隆街店),餐饮服务;咖啡厅;咖啡厅,西兴隆街130号,116.406753,39.897286,北京市,北京市,东城区
METAL HANDS(前门店),体育休闲服务;娱乐场所;酒吧|餐饮服务;餐饮相关场所;餐饮相关,北京城区西打磨厂街228号(前门地铁站G东南口步行160米),116.401396,39.898567,北京市,北京市,东城区
Z03咖啡(前门小院店),餐饮服务;咖啡厅;咖啡厅,北京城区西打磨厂街210号(前门地铁站G东南口步行320米),116.403219,39.898921,北京市,北京市,东城区
為水(前门大街店),餐饮服务;咖啡厅;咖啡厅,西兴隆街85号,116.407434,39.897506,北京市,北京市,东城区
星巴克(新活馆店),餐饮服务;咖啡厅;星巴克咖啡,东打磨厂7号崇文门新世界女子百货1层,116.413482,39.899577,北京市,北京市,东城区
北京饭店阳光咖啡厅,餐饮服务;咖啡厅;咖啡厅,东长安街33号北京饭店A座1楼(近王府井大街),116.410454,39.909045,北京市,北京市,东城区
星巴克(北京东方广场西区店),餐饮服务;咖啡厅;星巴克咖啡,北京城区东长安街1号东方广场东方新天地商场地下一层,116.414503,39.909537,北京市,北京市,东城区
luckin coffee 瑞幸咖啡(东方新天地店),餐饮服务;咖啡厅;咖啡厅,东长安街1号北京东方新天地LG层,116.413125,39.909105,北京市,北京市,东城区
库迪咖啡(北京医院店),餐饮服务;咖啡厅;咖啡厅,东单大华路1号北京医院门诊楼B1层(门诊楼餐厅内),116.415409,39.904389,北京市,北京市,东城区
Voyage Coffee(三里河公园店),餐饮服务;咖啡厅;咖啡厅,长巷五条19号,116.404025,39.895125,北京市,北京市,东城区
星巴克臻选(北京前门大街店),餐饮服务;咖啡厅;星巴克咖啡,前门大街1-1号(前门地铁站I西南口步行70米),116.397798,39.898236,北京市,北京市,东城区
大小咖啡BigSmallCoffee(前门店),餐饮服务;餐饮相关场所;餐饮相关,西兴隆街60号,116.408813,39.897187,北京市,北京市,东城区
前田珈琲·清吧(东方新天地店),餐饮服务;咖啡厅;咖啡厅,东长安街1号北京东方新天地商城平台层P-E101-02,116.415557,39.909276,北京市,北京市,东城区
% Arabica阿拉比卡咖啡(王府中環店),餐饮服务;咖啡厅;咖啡厅,北京城区王府井大街269号王府中环东座3层301a号,116.410291,39.912339,北京市,北京市,东城区
星巴克(北京市百货大楼店),餐饮服务;咖啡厅;星巴克咖啡,王府井大街253号王府井百货大楼首层,116.409707,39.914068,北京市,北京市,东城区
青雲熹玥coffee&Bar,购物服务;购物相关场所;购物相关场所,青云胡同23号,116.404384,39.895538,北京市,北京市,东城区
要潮人民咖啡馆(前门店),餐饮服务;咖啡厅;咖啡厅,前门大街81号(前门地铁站I西南口步行180米),116.398079,39.895215,北京市,北京市,东城区
Tims天好咖啡(东方广场店),餐饮服务;咖啡厅;咖啡厅,东长安街1号东方新天地商场首层AA50B-2号店铺,116.416117,39.909279,北京市,北京市,东城区
Grid Coffee(北京王府中環店),餐饮服务;咖啡厅;咖啡厅,北京城区王府中环中心B1层-122号商铺,116.409203,39.912462,北京市,北京市,东城区
LAVAZZA拉瓦萨咖啡(北京东方新天地店),餐饮服务;咖啡厅;咖啡厅,东长安街1号北京东方新天地UG层A502,116.416521,39.909010,北京市,北京市,东城区
星巴克(王府中环店),餐饮服务;咖啡厅;星巴克咖啡,北京城区王府井大街269号院1号楼王府中环B1层-102号商铺,116.410614,39.912605,北京市,北京市,东城区
COSTA COFFEE(东方新天地店),餐饮服务;咖啡厅;咖啡厅,东华门街道王府井大街东方新天地一层五区A501,116.416395,39.909100,北京市,北京市,东城区
Peet's Coffee皮爷咖啡(东方新天地店),餐饮服务;咖啡厅;咖啡厅,北京城区东长安街东方新天地UG层首层第五街皮爷咖啡,116.416613,39.909763,北京市,北京市,东城区
Grid Coffee(北京东方新天地店),餐饮服务;咖啡厅;咖啡厅,北京城区东长安街1号北京东方广场东方新天地商场首层A508号商铺,116.416379,39.909208,北京市,北京市,东城区
瑞幸咖啡(东方新天地店),餐饮服务;咖啡厅;咖啡厅,东长安街1号东方新天地1层南1门A503,116.416296,39.909184,北京市,北京市,东城区
TOWN HOUSE 北欧咖啡(西总布店),餐饮服务;咖啡厅;咖啡厅,北京城区西总布胡同86号,116.418775,39.912052,北京市,北京市,东城区
M Stand(东方新天地店),餐饮服务;咖啡厅;咖啡厅,东长安街1号北京东方新天地UG层,116.416310,39.908981,北京市,北京市,东城区
川珈琲,餐饮服务;餐饮相关场所;餐饮相关,兴隆都市馨园八号楼底商A101,116.415125,39.895625,北京市,北京市,东城区
星巴克(北京大栅栏店),餐饮服务;咖啡厅;星巴克咖啡,北京城区弓字胡同10号(北京坊W9楼对面),116.394282,39.897606,北京市,北京市,西城区
STARBUCKS COFFEE(崇文门新世界百货1期店),餐饮服务;咖啡厅;星巴克咖啡|购物服务;购物相关场所;购物相关场所,北京城区崇文门外大街3号新世界商场一期首层,116.418084,39.898363,北京市,北京市,东城区
Peet's Coffee皮爷咖啡(澳门中心店),餐饮服务;咖啡厅;咖啡厅,北京城区王府井东街8号澳门中心商场地上第一层L102号铺,116.413327,39.914866,北京市,北京市,东城区
Manner Coffee(东方新天地店),餐饮服务;咖啡厅;咖啡厅,东长安街1号北京东方新天地UG层A506,116.416565,39.909107,北京市,北京市,东城区
Tims天好咖啡(合景泰富摩方店),餐饮服务;咖啡厅;咖啡厅,崇文门外大街1号一层L103/04,116.417279,39.899542,北京市,北京市,东城区
星巴克(银泰in88购物中心店),餐饮服务;咖啡厅;星巴克咖啡,王府井大街88号北京王府井银泰in88购物中心1F层,116.412303,39.915811,北京市,北京市,东城区
星巴克(东安市场店),餐饮服务;咖啡厅;星巴克咖啡,王府井大街138号新东安广场地下一层B111-B112号店铺,116.412138,39.914571,北京市,北京市,东城区
瑞幸咖啡(apm店),餐饮服务;咖啡厅;咖啡厅,王府井大街138号新东安广场四层L426B号店铺,116.411815,39.913863,北京市,北京市,东城区
星巴克(国瑞购物中心店),餐饮服务;咖啡厅;星巴克咖啡,崇文门外大街18号国瑞购物中心地下二层,116.419383,39.897942,北京市,北京市,东城区
% Arabica阿拉比卡咖啡(北京APM店),餐饮服务;咖啡厅;咖啡厅,王府井大街138号北京apm1层(金鱼胡同地铁站出入口旁),116.411546,39.914542,北京市,北京市,东城区
星巴克(北京新闻大厦店),餐饮服务;咖啡厅;星巴克咖啡,建内大街19号新闻大厦1层(东单地铁站C东南口步行200米),116.421919,39.907462,北京市,北京市,东城区
瑞幸咖啡(崇文新世界二期店),餐饮服务;咖啡厅;咖啡厅,崇文门外大街3号崇文新世界百货一期南门一层,116.417406,39.897606,北京市,北京市,东城区
糖房咖啡(故宫店),餐饮服务;咖啡厅;咖啡厅,南河沿5号(友方宾馆)(金鱼胡同地铁站C西南口步行410米),116.406378,39.914266,北京市,北京市,东城区
Cafe Notion,餐饮服务;咖啡厅;咖啡厅,北京城区南火扇胡同2号,116.393354,39.896928,北京市,北京市,西城区
大内宫保·茶咖夜饮,餐饮服务;餐饮相关场所;餐饮相关,北京城区前门大街大栅栏街34号内联升鞋店2层,116.395378,39.895700,北京市,北京市,西城区
VOYAGE COFFEE(杨梅竹店),餐饮服务;咖啡厅;咖啡厅,杨梅竹斜街22号,116.393267,39.895849,北京市,北京市,西城区
M Stand(崇文门新世界百货2期店),餐饮服务;咖啡厅;咖啡厅,崇文门外大街5号新世界百货2期L1层,116.417857,39.896627,北京市,北京市,东城区
瑞幸咖啡(王府井银泰in88店),餐饮服务;咖啡厅;咖啡厅,王府井大街88号1幢负一层B106号,116.411849,39.916035,北京市,北京市,东城区
斜街 8号coffee & books,餐饮服务;咖啡厅;咖啡厅,北京城区杨梅竹斜街8号(铃木食堂隔壁),116.393784,39.896066,北京市,北京市,西城区
清华池咖啡(北京市百货大楼店),餐饮服务;咖啡厅;咖啡厅,百货大楼B2层(金鱼胡同地铁站C西南口步行260米),116.409995,39.913951,北京市,北京市,东城区
BERRY BEANS(前门店),餐饮服务;咖啡厅;咖啡厅,北京城区朱家胡同7号,116.392427,39.894396,北京市,北京市,西城区
星巴克(北京东方广场4店),餐饮服务;咖啡厅;星巴克咖啡,东华门街道东单三条8-16号(平台层东侧汇贤豪庭公寓一层),116.415940,39.909714,北京市,北京市,东城区
Manner Coffee(北京apm店),餐饮服务;咖啡厅;咖啡厅,王府井大街138号新东安广场B2,116.412058,39.915130,北京市,北京市,东城区
瑞幸咖啡(前门大街店),餐饮服务;咖啡厅;咖啡厅,前门大街108号底商(珠市口地铁站A西北口步行200米),116.398421,39.892733,北京市,北京市,东城区
Grid Coffee(北京前门大街店),餐饮服务;咖啡厅;咖啡厅,北京城区前门大街主街94号,116.398303,39.893379,北京市,北京市,东城区
星巴克(哈德门广场店),餐饮服务;咖啡厅;星巴克咖啡,崇文门外大街8号哈德门1号楼F1-05,116.419954,39.899499,北京市,北京市,东城区
Grid Coffee(北京王府井银泰店),餐饮服务;咖啡厅;咖啡厅,北京城区王府井大街88号1幢地上一层L123号铺位Grid Coffee,116.411880,39.916256,北京市,北京市,东城区
肯悦咖啡前门店,餐饮服务;餐饮相关场所;餐饮相关,前门西大街正阳市场1号楼中部,116.395270,39.899578,北京市,北京市,西城区
Manner Coffee(合景摩方购物中心店),餐饮服务;咖啡厅;咖啡厅,崇文门外街道崇文门外大街1号北京合景·摩方购物中心B1层ZD-B1-01号,116.417651,39.899733,北京市,北京市,东城区
星巴克(民生金融中心店),餐饮服务;咖啡厅;星巴克咖啡,建国门内大街28号民生金融中心C座1层C08-A单元,116.419973,39.907192,北京市,北京市,东城区
M Stand(北京apm店),餐饮服务;咖啡厅;咖啡厅,王府井大街138号新东安广场地下二层B2-201B店铺,116.411916,39.915177,北京市,北京市,东城区
星巴克(金宝大厦店),餐饮服务;咖啡厅;星巴克咖啡,北京城区金宝街89号金宝大厦1层4室近金宝汇购物中心,116.419594,39.916214,北京市,北京市,东城区
STARBUCKS RESERVE(北京坊店),餐饮服务;咖啡厅;星巴克咖啡,廊房头条21号院北京坊W1(前门地铁站I西南口步行220米),116.396899,39.897945,北京市,北京市,西城区
那伽树无障碍咖啡披萨集合店,餐饮服务;咖啡厅;咖啡厅,三井胡同21号,116.391062,39.897695,北京市,北京市,西城区
一介野生COFFEE,餐饮服务;咖啡厅;咖啡厅,杨梅竹斜街77号,116.391688,39.895578,北京市,北京市,西城区
卡尔法咖啡酒吧KARFA BAR(崇文门店),体育休闲服务;娱乐场所;酒吧|餐饮服务;咖啡厅;咖啡厅,崇文门外大街新成文化大A座203号,116.418325,39.894624,北京市,北京市,东城区
Cafe&Meal MUJI(北京坊西区店),餐饮服务;快餐厅;快餐厅,煤市街廊房头条21号院北京坊西区二号楼一层,116.395486,39.898582,北京市,北京市,西城区
星巴克(北京中粮广场店),餐饮服务;咖啡厅;星巴克咖啡,建国门内大街8号中粮广场C座一层,116.429496,39.906941,北京市,北京市,东城区
库迪咖啡(哈德门广场店),餐饮服务;咖啡厅;咖啡厅,崇文门外大街8号哈德门广场西塔B1层09号,116.419613,39.899638,北京市,北京市,东城区
瑞幸咖啡(哈德门广场G层店),餐饮服务;咖啡厅;咖啡厅,崇文门外大街8号哈德门广场负一层G-ZD5号,116.419952,39.899711,北京市,北京市,东城区
撞咖·咖啡(前门店),餐饮服务;咖啡厅;咖啡厅,天鼎218文化金融园,116.402843,39.891199,北京市,北京市,东城区
Liberté小篱笆,餐饮服务;餐饮相关场所;餐饮相关,东晓市街与东晓市二巷交叉口西南20米,116.414475,39.890579,北京市,北京市,东城区
Grid Coffee(前门大街店),餐饮服务;咖啡厅;咖啡厅,前门东大街94号(珠市口地铁站A西北口步行300米),116.398409,39.893447,北京市,北京市,东城区
星巴克(金宝汇购物中心店),餐饮服务;咖啡厅;星巴克咖啡,东城区金宝街88号金宝汇一层112号商铺,116.420921,39.915305,北京市,北京市,东城区
DARKROOM CAFE暗房咖啡,餐饮服务;咖啡厅;咖啡厅,三井胡同21号,116.391025,39.897623,北京市,北京市,西城区
luckin coffee 瑞幸咖啡(北京合景摩方购物中心店),餐饮服务;咖啡厅;咖啡厅,合景摩方购物中心(崇文门地铁站出入口步行120米),116.417679,39.899626,北京市,北京市,东城区
Soloist 独奏公司(杨梅竹店),餐饮服务;咖啡厅;咖啡厅,煤市街杨梅竹斜街39号,116.392960,39.895942,北京市,北京市,西城区
星巴克(灯市口天客隆咖啡店),餐饮服务;咖啡厅;星巴克咖啡,北京城区沿街(灯市口地铁站A西北口步行430米),116.414275,39.918875,北京市,北京市,东城区
库迪咖啡(王府77店),餐饮服务;咖啡厅;咖啡厅,王府井大街77号A座1层(北侧),116.410334,39.920712,北京市,北京市,东城区
入巷咖啡,餐饮服务;咖啡厅;咖啡厅,东晓市街7号(磁器口地铁站D西南口步行420米),116.417601,39.889813,北京市,北京市,东城区
Manner Coffee(北京坊店),餐饮服务;咖啡厅;咖啡厅,北京坊(前门地铁站I西南口步行370米),116.394910,39.897673,北京市,北京市,西城区
同仁堂知嘛健康咖啡&养生BAR(北京apm店),医疗保健服务;医疗保健服务场所;医疗保健服务场所,王府井大街138号北京apm3层302-305,116.411931,39.915267,北京市,北京市,东城区
耀咖啡(东单店),餐饮服务;咖啡厅;咖啡厅,东单北大街68号一层北侧及二层,116.418094,39.912930,北京市,北京市,东城区
宫喜发财-咖啡文创(东华门店),餐饮服务;餐饮相关场所;餐饮相关,东华门大街70号,116.403594,39.915059,北京市,北京市,东城区
45号狐山路咖啡,餐饮服务;咖啡厅;咖啡厅,杨梅竹斜街与青竹巷交叉口西60米,116.391351,39.895485,北京市,北京市,西城区
MANNERCOFFEE(崇文门新世界百货1期店),餐饮服务;咖啡厅;咖啡厅,崇文门外大街5号新世界1期L1层,116.417761,39.897378,北京市,北京市,东城区
前叁門,餐饮服务;咖啡厅;咖啡厅,笤帚胡同20号,116.390168,39.895994,北京市,北京市,西城区
瑞幸咖啡(国旅大厦店),餐饮服务;咖啡厅;咖啡厅,东单北大街1号国旅大厦一层大堂,116.417501,39.915124,北京市,北京市,东城区
瑞幸咖啡(中国农业银行大厦店),餐饮服务;咖啡厅;咖啡厅,建国门内大街69号中国农业银行一层大堂,116.419891,39.909258,北京市,北京市,东城区
角楼咖啡(暂停营业),餐饮服务;咖啡厅;咖啡厅,角楼咖啡(鲜鱼口老字号美食街店),116.398125,39.897157,北京市,北京市,东城区
库迪咖啡(东方新天地店)(暂停营业),餐饮服务;咖啡厅;咖啡厅,东华门街道东方新天地东方广场E1座(B1层集结号美食城内),116.416338,39.909229,北京市,北京市,东城区
BOOK CAFE美式書房咖啡,餐饮服务;咖啡厅;咖啡厅,北京城区东四南大街72号纸上声音书店二层,116.417792,39.921631,北京市,北京市,东城区
汵奇咖啡Cenchi coffee,餐饮服务;咖啡厅;咖啡厅,东四南大街114号(灯市口地铁站A西北口步行270米),116.417858,39.919864,北京市,北京市,东城区
国家大剧院咖啡厅,餐饮服务;咖啡厅;咖啡厅,西长安街2号国家大剧院1层(近人大会堂西路),116.389723,39.904786,北京市,北京市,西城区
luckin coffee 瑞幸咖啡(国际艺苑大酒店店),餐饮服务;咖啡厅;咖啡厅,国际艺苑大酒店西门旁,116.411347,39.919319,北京市,北京市,东城区
吉祥咖啡·点绛唇,餐饮服务;咖啡厅;咖啡厅,甘雨胡同与王府井大街交叉口东60米,116.411727,39.916855,北京市,北京市,东城区
老房子1918咖啡厅,餐饮服务;咖啡厅;咖啡厅,北京城区万明路11号东方饭店(虎坊桥地铁站C东南口步行460米),116.389749,39.888624,北京市,北京市,西城区
Meya Coffee,餐饮服务;咖啡厅;咖啡厅,珠市口东大街甲16-36号(桥湾地铁站D西南口步行490米),116.403312,39.890775,北京市,北京市,东城区
COSTA COFFEE(天润财富中心店),餐饮服务;咖啡厅;咖啡厅,朝阳门南小街26号院天润财富中心F1层,116.427700,39.911114,北京市,北京市,东城区
舆观咖啡.You Viewpoint Cafe,餐饮服务;咖啡厅;咖啡厅,灯市口演乐胡同93号(灯市口地铁站A西北口步行430米),116.418645,39.920583,北京市,北京市,东城区
CABO Coffee(北京街店),餐饮服务;咖啡厅;咖啡厅,北京街13号(天坛东门地铁站A2西北口步行490米),116.420834,39.887571,北京市,北京市,东城区
云朵咖啡,餐饮服务;咖啡厅;咖啡厅,五四大街33号一层,116.403460,39.924227,北京市,北京市,东城区
瑞幸咖啡(丰泰中心店),餐饮服务;咖啡厅;咖啡厅,珠市口东大街2号丰泰中心一层,116.416098,39.892660,北京市,北京市,东城区
Coffee Breath呼吸咖啡,餐饮服务;咖啡厅;咖啡厅,琉璃厂东街姚江胡同一号,116.386443,39.894903,北京市,北京市,西城区
模范咖啡,餐饮服务;餐饮相关场所;餐饮相关,杨梅竹斜街前门大街云木集2层,116.393353,39.896047,北京市,北京市,西城区
星巴克(红桥市场店),餐饮服务;咖啡厅;星巴克咖啡,北京城区天坛东路46号迤北红桥市场一层001单元,116.420263,39.886648,北京市,北京市,东城区
库迪咖啡(朝阳门南小街店),餐饮服务;咖啡厅;咖啡厅,北京城区朝阳门南小街20号楼1层底商6号(便利蜂和711中间),116.427161,39.914185,北京市,北京市,东城区
做書咖啡,餐饮服务;咖啡厅;咖啡厅,北京城区隆福寺东院1号院3层(中国书店正上方),116.415196,39.924922,北京市,北京市,东城区
伍楼咖啡,餐饮服务;咖啡厅;咖啡厅,北京城区东四南大街15号17号雪莲亮点文创园5层顶楼,116.417317,39.922939,北京市,北京市,东城区
福叁咖啡(美术馆店),餐饮服务;咖啡厅;咖啡厅,北京城区美术馆东街22北侧楼1层,116.411109,39.926320,北京市,北京市,东城区
无韵诗咖啡BlankVerse(东四店),餐饮服务;咖啡厅;咖啡厅,东四南大街15号雪莲亮点文创园106号,116.417459,39.922859,北京市,北京市,东城区
knit coffee(金宝汇购物中心店),餐饮服务;餐饮相关场所;餐饮相关,金宝街与东四南大街交叉口东南120米,116.421666,39.914933,北京市,北京市,东城区
瑞幸咖啡(昌盛大厦店),餐饮服务;咖啡厅;咖啡厅,北京城区北新华街29号北京昌盛大厦一层107号,116.383316,39.903860,北京市,北京市,西城区
夏至咖啡,餐饮服务;咖啡厅;咖啡厅,留学路88号(珠市口地铁站G西南口步行430米),116.394700,39.888279,北京市,北京市,西城区
中古蔷薇,风景名胜;风景名胜相关;旅游景点,藏家桥胡同4号(虎坊桥地铁站B东北口步行410米),116.385199,39.892374,北京市,北京市,西城区
璞瑄酒店大堂吧,餐饮服务;餐饮相关场所;餐饮相关,北京市王府井大街1号北京璞瑄酒店4层,116.409952,39.923454,北京市,北京市,东城区
星巴克(雍贵中心店),餐饮服务;咖啡厅;星巴克咖啡,广渠门内大街41号1层41-01室,116.428564,39.894015,北京市,北京市,东城区
莲COFFEE&T(北京明城墙遗址公园店),餐饮服务;咖啡厅;咖啡厅,崇文门东大街9号(明城墙遗址公园内城墙上),116.433036,39.901630,北京市,北京市,东城区
无韵诗咖啡(北京音乐厅店),餐饮服务;咖啡厅;咖啡厅,北新华街14号,116.382937,39.905996,北京市,北京市,西城区
瑞幸咖啡(中粮广场B座店),餐饮服务;餐饮相关场所;餐饮相关,建国门内大街8号中粮广场B座F1层,116.430309,39.906667,北京市,北京市,东城区
安澜自在咖啡ANLAN Coffee,餐饮服务;咖啡厅;咖啡厅,小沙土园胡同与大安澜营胡同交叉口西南20米,116.385697,39.894055,北京市,北京市,西城区
瑞幸咖啡(华丽大厦店),餐饮服务;咖啡厅;咖啡厅,王府井金宝街58号一层103A,116.425272,39.915195,北京市,北京市,东城区
O.M.G.Coffee(北京街店),餐饮服务;咖啡厅;咖啡厅,法华寺街91号北京街47号,116.421437,39.888060,北京市,北京市,东城区
库迪咖啡(北京天雅珠宝城店),餐饮服务;咖啡厅;咖啡厅,法华寺街136号天雅珠宝城1层A西-08(珠宝城西门),116.421267,39.886758,北京市,北京市,东城区
福禄米行,餐饮服务;咖啡厅;咖啡厅|购物服务;购物相关场所;购物相关场所,朝内南小街禄米仓胡同71-2号,116.429019,39.917182,北京市,北京市,东城区
福嗝er Cafe&Brewpub(东四店),餐饮服务;咖啡厅;咖啡厅,北京城区东四北大街495号(停车在盈地大厦附近路边),116.417283,39.926003,北京市,北京市,东城区
Da Cafe打杯咖啡(天桥店),餐饮服务;咖啡厅;咖啡厅,华仁路5号楼底商,116.393076,39.887687,北京市,北京市,西城区
库迪咖啡(盈城中心C座店),餐饮服务;咖啡厅;咖啡厅,北京站东街8号盈城中心C座大堂,116.431397,39.904327,北京市,北京市,东城区
瑞幸咖啡(通正国际大厦店),餐饮服务;咖啡厅;咖啡厅,广渠门内大街80号通正国际大厦一层,116.428721,39.892909,北京市,北京市,东城区
日进咖啡(北京故宫店),餐饮服务;咖啡厅;咖啡厅,北京城区沙滩后街22号1幢一层101,116.401785,39.925330,北京市,北京市,东城区
库迪咖啡(北京天桥艺术大厦店),餐饮服务;餐饮相关场所;餐饮相关,天桥南大街1号天桥艺术大厦B座,116.398018,39.885702,北京市,北京市,西城区
1402 cafe(美术馆店),餐饮服务;咖啡厅;咖啡厅,隆福寺街95号北京隆福寺街区L1层,116.411162,39.925305,北京市,北京市,东城区
星巴克(北京隆福寺店),餐饮服务;咖啡厅;咖啡厅,隆福寺街47号(东四地铁站E西北口步行60米),116.415266,39.925195,北京市,北京市,东城区
隆福1402,餐饮服务;餐饮相关场所;餐饮相关,隆福寺街23号(东四地铁站B东北口步行210米),116.416289,39.925297,北京市,北京市,东城区
角楼咖啡厅(暂停营业),餐饮服务;咖啡厅;咖啡厅,景山前街4号故宫博物院内神武门外西侧,116.396188,39.922434,北京市,北京市,东城区
CHOOCHOO COFFEE,餐饮服务;咖啡厅;咖啡厅,大栅栏街道韩家胡同78号,116.385505,39.891505,北京市,北京市,西城区
UPLIFT Café & Taproom,餐饮服务;咖啡厅;咖啡厅,北京城区东四北大街496号1幢101,116.417583,39.925765,北京市,北京市,东城区
JiOJiOCoffee(东花市店),餐饮服务;咖啡厅;咖啡厅,北京城区东花市大街东花市南里东区3号楼1层B05,116.435734,39.896916,北京市,北京市,东城区
NAMOC COFFEE,餐饮服务;餐饮相关场所;餐饮相关,五四大街1号(中国美术馆院内东侧),116.409249,39.925073,北京市,北京市,东城区
天坛福饮咖啡店,餐饮服务;冷饮店;冷饮店|餐饮服务;咖啡厅;咖啡厅,天坛公园东门(天坛东门地铁站A2西北口步行340米),116.417264,39.883634,北京市,北京市,东城区
Dark Hill精品咖啡豆子店,餐饮服务;咖啡厅;咖啡厅|购物服务;购物相关场所;购物相关场所,北京城区隆福寺街15号地铁5号线A口出又一福烤鸭隔壁黑色铁栅栏门,116.416815,39.925339,北京市,北京市,东城区
luckin coffee 瑞幸咖啡(隆福广场店),餐饮服务;咖啡厅;咖啡厅,隆福广场D座(东四地铁站E西北口步行110米),116.414476,39.924825,北京市,北京市,东城区
星巴克(荷华明城大厦店),餐饮服务;咖啡厅;星巴克咖啡,北京城区建国门街道北京万豪中心荷华明城大厦A座一层,116.433660,39.904886,北京市,北京市,东城区
MER COFFEE,餐饮服务;咖啡厅;咖啡厅,东四四条82-3号(东四地铁站B东北口步行370米),116.418214,39.927237,北京市,北京市,东城区
ABSOLUT BAR,餐饮服务;咖啡厅;咖啡厅,北京城区隆福寺街95号隆福大厦E座1层7号,116.414238,39.926328,北京市,北京市,东城区
瑞幸咖啡(荷华明城大厦店),餐饮服务;咖啡厅;咖啡厅,东城区建国门南大街7号荷华明城大厦一层,116.434575,39.904725,北京市,北京市,东城区
禄遇LUYU,餐饮服务;中餐厅;中餐厅,禄米仓胡同37号,116.431995,39.917169,北京市,北京市,东城区
点绛唇(戏曲博物馆店),购物服务;个人用品/化妆品店;其它个人用品店|餐饮服务;茶艺馆;茶艺馆,虎坊路与珠市口西大街辅路交叉口西南60米,116.384100,39.888947,北京市,北京市,西城区
INNER CAFE(隆福寺店),餐饮服务;咖啡厅;咖啡厅,隆福寺街95号北京隆福寺街区L1层,116.413726,39.925534,北京市,北京市,东城区
% Arabica阿拉比卡咖啡(钱粮胡同店),餐饮服务;咖啡厅;咖啡厅,北京城区隆福寺街95号(东四地铁站E西北口步行280米),116.413681,39.926784,北京市,北京市,东城区
灯堂咖啡(天桥店),餐饮服务;咖啡厅;咖啡厅,新农街13号(天桥地铁站A西北口步行270米),116.397044,39.882386,北京市,北京市,西城区
Greet caffee&Bar打招呼的人,餐饮服务;咖啡厅;咖啡厅,朝阳门内大街195号,116.423509,39.924734,北京市,北京市,东城区
库迪咖啡(北京隆福寺店),餐饮服务;咖啡厅;咖啡厅,隆福寺街95号北京隆福寺东院B1层,116.416758,39.924933,北京市,北京市,东城区
图吉纳咖啡Cafe.Bar,餐饮服务;咖啡厅;咖啡厅,东四北大街头条七号(东四地铁站B北口旁),116.418175,39.925101,北京市,北京市,东城区
星巴克臻选(汉光百货店),餐饮服务;咖啡厅;星巴克咖啡,北京城区西单北大街176号汉光百货1楼(近小石虎胡同),116.375990,39.909262,北京市,北京市,西城区
井咖啡,体育休闲服务;娱乐场所;娱乐场所,三眼井胡同与吉安所左巷交叉口西南20米,116.400275,39.927775,北京市,北京市,东城区
铁手咖啡制造局(metalhands),餐饮服务;咖啡厅;咖啡厅,北京城区南阳胡同6号6幢1层,116.413796,39.929230,北京市,北京市,东城区
无问西东咖啡精酿鸡尾酒bistrobar,餐饮服务;咖啡厅;咖啡厅,东四街道东四北大街472号(东四地铁站B东北口步行200米),116.417721,39.926438,北京市,北京市,东城区
漫咖啡MAAN COFFEE(西单钟声胡同店),餐饮服务;咖啡厅;咖啡厅,钟声胡同23号(西单地铁站C东北口步行210米),116.377821,39.909468,北京市,北京市,西城区
瑞幸咖啡(泰和国际大厦店),餐饮服务;咖啡厅;咖啡厅,骡马市大街8号楼泰和国际大厦一层103-2室,116.383075,39.888984,北京市,北京市,西城区
咔咖咖啡(天安天地大厦店),餐饮服务;咖啡厅;咖啡厅,油坊胡同(宣武门地铁站F东北口步行280米),116.375960,39.903166,北京市,北京市,西城区
柒cafe,餐饮服务;餐饮相关场所;餐饮相关,东四头条与东四北大街交叉口东60米(东四地铁站B东北口旁),116.418253,39.925098,北京市,北京市,东城区
瑞幸咖啡(东方财富店),餐饮服务;咖啡厅;咖啡厅,安化北里2号院1号楼东方财富底商,116.436911,39.893361,北京市,北京市,东城区
% Arabica阿拉比卡咖啡(更新场店),餐饮服务;咖啡厅;咖啡厅,北京城区西单北大街180号西单更新场M楼B16-118号,116.375141,39.907956,北京市,北京市,西城区
回HUI(东景缘Temple店),餐饮服务;餐饮相关场所;餐饮相关,沙滩北街嵩祝寺23号院内,116.403615,39.928266,北京市,北京市,东城区
库迪咖啡(广渠门内地铁站店),餐饮服务;咖啡厅;咖啡厅,广渠门内大街29号7幢一层101-168,116.435421,39.893951,北京市,北京市,东城区
瑞幸咖啡(华滨国际大酒店店),餐饮服务;咖啡厅;咖啡厅,宣武门内大街4号华滨国际大酒店一层大堂,116.376175,39.903725,北京市,北京市,西城区
星巴克(庄胜崇光店),餐饮服务;咖啡厅;星巴克咖啡,北京城区宣武门外大街6号楼,116.375057,39.897577,北京市,北京市,西城区
天桥艺术·咖啡与茶,餐饮服务;咖啡厅;咖啡厅,天桥南里(天桥地铁站A西北口步行270米),116.397041,39.882412,北京市,北京市,西城区
甲板DECK Coffee&Taproom(隆福寺店),餐饮服务;外国餐厅;西餐厅(综合风味),隆福寺街95号北京隆福寺北里L1层,116.413660,39.927755,北京市,北京市,东城区
瑞幸咖啡(外交公寓店),餐饮服务;咖啡厅;咖啡厅,秀水街1号院外交公寓16号楼一层JG13室,116.438640,39.909543,北京市,北京市,朝阳区
天桥艺术咖啡•前叁門,餐饮服务;餐饮相关场所;餐饮相关,天桥南大街9号楼1层106号(天桥地铁站D西南口步行90米),116.398325,39.881925,北京市,北京市,西城区
Yoomo & nest,餐饮服务;咖啡厅;咖啡厅,北京城区北京城区东四北大街425号,116.417186,39.927041,北京市,北京市,东城区
GO IN HOUSE,体育休闲服务;娱乐场所;酒吧,光华路44号外交人员免税商店底商,116.436937,39.912668,北京市,北京市,朝阳区
Costa Coffee(北京图书大厦店),餐饮服务;餐饮相关场所;餐饮相关,西长安街与钟声胡同交叉口西北80米(西单地铁站C东北口旁),116.377088,39.907788,北京市,北京市,西城区
五饼二余,餐饮服务;咖啡厅;咖啡厅,前门西大街141号,116.374757,39.900787,北京市,北京市,西城区
JM Cafe(东四店),餐饮服务;咖啡厅;咖啡厅,北京城区东四北大街360号,116.417530,39.929086,北京市,北京市,东城区
瑞幸咖啡(雅宝大厦店),餐饮服务;咖啡厅;咖啡厅,雅宝路6号雅宝大厦一层大堂,116.437012,39.915253,北京市,北京市,朝阳区
觥里Craft Beer&Coffee(朝内店),餐饮服务;咖啡厅;咖啡厅,朝阳门内大街路北137号孚王府(不对外开放)内(南侧),116.424696,39.924703,北京市,北京市,东城区
星巴克北京银河SOHO店,餐饮服务;咖啡厅;星巴克咖啡,北京市南竹杆胡同2号1幢-1层1-123&1-126,116.433471,39.920939,北京市,北京市,东城区
瑞幸咖啡(天桥百货商场店),餐饮服务;咖啡厅;咖啡厅,永定门内大街1号天桥百货商场F1层,116.398259,39.880464,北京市,北京市,西城区
Peet's Coffee皮爷咖啡(西单君太店),餐饮服务;咖啡厅;咖啡厅,西单北大街133号1楼,116.373500,39.909417,北京市,北京市,西城区
MindMasterCoffee,餐饮服务;咖啡厅;咖啡厅,白桥大街10号天娇园,116.439147,39.897924,北京市,北京市,东城区
糖房咖啡(什刹海店),餐饮服务;餐饮相关场所;餐饮相关,北京城区什刹海街道前海东沿22号3层-4层,116.394115,39.938976,北京市,北京市,西城区
阿嬷手作(北京三里屯太古里店),体育休闲服务;休闲场所;休闲场所,北京城区三里屯太古里南区一层S9-11阿嬷手作(靠近苹果店),116.453886,39.934540,北京市,北京市,朝阳区
Peet's Coffee皮爷咖啡(首钢园店),餐饮服务;咖啡厅;咖啡厅,石景山路68号工业遗址公园13号楼,116.160021,39.910171,北京市,北京市,石景山区
紫光园清真北京小吃(天安门店),餐饮服务;餐饮相关场所;餐饮相关,北京城区前门西大街正阳市场1号楼1层106,116.395612,39.899509,北京市,北京市,西城区
喜茶(北京荟聚中心店),餐饮服务;冷饮店;冷饮店,欣宁街15号北京荟聚中心L1-01C75,116.325468,39.787302,北京市,北京市,大兴区
JM Cafe咖啡(白塔寺店),餐饮服务;咖啡厅;咖啡厅,北京城区宫门口东岔29号,116.362449,39.925763,北京市,北京市,西城区
隆延茶铺·正统奶茶(东直门来福士店),餐饮服务;冷饮店;冷饮店,东直门南大街1-1来福士B1层B1-K22K25,116.432445,39.940244,北京市,北京市,东城区
8KM COFFEE,餐饮服务;咖啡厅;咖啡厅,阜通东大街6号院2号楼方恒国际B座1层102,116.480870,39.990321,北京市,北京市,朝阳区
紫光园奶皮子酸奶站(北京站店),餐饮服务;餐饮相关场所;餐饮相关,建国门街道北京站东街东寿禄39号平价超市,116.430720,39.904618,北京市,北京市,东城区
喜茶(三里屯太古里店),餐饮服务;冷饮店;冷饮店,三里屯路19号院地下一层SLG33b单元,116.454670,39.935132,北京市,北京市,朝阳区
星巴克咖啡(北投新奥购物中心店),餐饮服务;咖啡厅;星巴克咖啡,北京城区湖景东路9、11号2幢-1层-101内B1-05单元,116.394965,39.999792,北京市,北京市,朝阳区
URBAN GREEN(北京雍和宫店),购物服务;服装鞋帽皮具店;品牌服装店|餐饮服务;咖啡厅;咖啡厅,前永康胡同11号东雍文化园内,116.420260,39.944164,北京市,北京市,东城区
紫光园酸奶站(南锣鼓巷店),餐饮服务;餐饮相关场所;餐饮相关,南锣鼓巷121号(南锣鼓巷地铁站E西北口步行190米),116.403060,39.935366,北京市,北京市,东城区
青玉酸奶,餐饮服务;冷饮店;冷饮店,北京城区豆角胡同46号,116.398483,39.936717,北京市,北京市,东城区
喜茶·茶坊(北京三里屯太古里黑金店),餐饮服务;冷饮店;冷饮店,三里屯太古里西区一层W1-10,116.453264,39.934638,北京市,北京市,朝阳区
大山咖啡coffee,餐饮服务;咖啡厅;咖啡厅,北京城区渤海镇苇店村51号,116.557080,40.406506,北京市,北京市,怀柔区
静水StillWater,餐饮服务;咖啡厅;咖啡厅,鼓楼东大街69号,116.405482,39.941009,北京市,北京市,东城区
VOYAGE COFFEE Espresso(南锣鼓巷店),餐饮服务;咖啡厅;咖啡厅,地安门东大街97号(南锣鼓巷地铁站A西北口步行190米),116.400267,39.933630,北京市,北京市,东城区
1901 Cafe(西四店),餐饮服务;咖啡厅;咖啡厅,西安门大街101号(近西什库大街),116.378154,39.922760,北京市,北京市,西城区
喜茶(北京世纪金源购物中心店),餐饮服务;冷饮店;冷饮店,远大路1号世纪金源购物中心1层1015号商铺,116.288513,39.958270,北京市,北京市,海淀区
BLOOM,购物服务;购物相关场所;购物相关场所,北京城区高碑店路398号崇德文化产业园C区5号,116.527159,39.881152,北京市,北京市,朝阳区
茶百道(合生汇店),餐饮服务;冷饮店;冷饮店,西大望路21号北京朝阳合生汇B2(九龙山地铁站E西北口旁),116.479246,39.893744,北京市,北京市,朝阳区
漫咖啡MAAN COFFEE(四得公园店),餐饮服务;咖啡厅;咖啡厅,将台西路9-7号(将台西地铁站A口旁),116.478138,39.972486,北京市,北京市,朝阳区
瑞幸咖啡(荟聚购物中心三层店),餐饮服务;咖啡厅;咖啡厅,西红门镇欣宁街15号北京荟聚西红门购物中心三层03F04K号,116.326634,39.788018,北京市,北京市,大兴区
il gatto coffee意咖多咖啡(日坛店),餐饮服务;咖啡厅;咖啡厅,秀水东街1号圭亚那大使馆马路对面,116.449427,39.916336,北京市,北京市,朝阳区
星巴克(北京蓝色港湾RO臻选店),餐饮服务;咖啡厅;星巴克咖啡,朝阳公园路6号SOLANA蓝色港湾1F层,116.473616,39.949201,北京市,北京市,朝阳区
尹三豆汁冰淇淋(南锣鼓巷店),餐饮服务;冷饮店;冷饮店,南锣鼓巷89号(南锣鼓巷地铁站E西北口步行380米),116.403095,39.937179,北京市,北京市,东城区
星巴克(北京三里屯SOHO一店),餐饮服务;咖啡厅;星巴克咖啡,北京城区工人体育场北路8号院1号楼1层1118,116.453273,39.932847,北京市,北京市,朝阳区
一尺花园(首钢店),餐饮服务;餐饮相关场所;餐饮相关,北京城区首钢厂区首都钢铁公司动力厂1幢,116.158056,39.919123,北京市,北京市,石景山区
藏书馆咖啡(牡丹园店),餐饮服务;咖啡厅;咖啡厅,牡丹园西里11-16号底商牡丹园地铁B口东北口往北200米右侧即到,116.370316,39.978823,北京市,北京市,海淀区
CHARLIETOWN红茶公司(北京国贸商城店),餐饮服务;冷饮店;冷饮店,建国门外大街1号国贸商城北区L2层NL2026(二楼耐克对面),116.460898,39.912718,北京市,北京市,朝阳区
星巴克臻选(北京荟聚店),餐饮服务;咖啡厅;星巴克咖啡,西红门镇欣宁大街15号北京荟聚中心1层01F27号,116.327349,39.787782,北京市,北京市,大兴区
BE YOLO(菜市口店),购物服务;服装鞋帽皮具店;品牌服装店,天景胡同6号13室,116.374105,39.884788,北京市,北京市,西城区
蜜雪冰城(三里屯SOHO旗舰店),餐饮服务;冷饮店;冷饮店,三里屯SOHO蜜雪冰城旗舰店,116.454009,39.932415,北京市,北京市,朝阳区
星巴克(林肯公园店),餐饮服务;咖啡厅;星巴克咖啡,北京城区文化园西路6号17号楼一层101-1单元,116.494277,39.805659,北京市,北京市,大兴区
星巴克臻选(新地佰店),餐饮服务;咖啡厅;星巴克咖啡,什刹海街道地安门外大街31号1号楼1层1-04号,116.395725,39.938325,北京市,北京市,西城区
CHAGEE霸王茶姬(北京荟聚购物中心店),餐饮服务;冷饮店;冷饮店,荟聚商城中心北1门一层01B44(西红门地铁站A西北口旁),116.327573,39.789841,北京市,北京市,大兴区
喜茶(北京五棵松华熙店),餐饮服务;冷饮店;冷饮店,复兴路69号华熙LIVE16幢1层101-203,116.278226,39.910269,北京市,北京市,海淀区
鼓捣猫呢咖啡馆(南锣鼓巷店),餐饮服务;咖啡厅;咖啡厅,南锣鼓巷小菊儿胡同71号,116.403476,39.939871,北京市,北京市,东城区
Blue Seed和风洋食·氮气咖啡(亦庄店),餐饮服务;咖啡厅;咖啡厅,北京城区经海六路9号银和港A座1层东南侧,116.569259,39.788251,北京市,北京市,通州区
星巴克(北京雍和大厦店),餐饮服务;咖啡厅;星巴克咖啡,北京城区安定门东大街28号雍和大厦C座1层西侧,116.420844,39.948383,北京市,北京市,东城区
喜茶(北京凯德MALL西直门店),餐饮服务;冷饮店;冷饮店,西直门外大街1号凯德MALL(西直门店)F1层,116.352816,39.941917,北京市,北京市,西城区
Songmont山下有松(颐堤港店),餐饮服务;冷饮店;冷饮店,北京城区酒仙桥路18号颐堤港L1层L1-156,116.491866,39.969615,北京市,北京市,朝阳区
星巴克臻选(北京首都机场11店),餐饮服务;咖啡厅;星巴克咖啡,北京首都国际机场T3航站楼4层公共区,116.615432,40.056342,北京市,北京市,顺义区
霸王茶姬(北京朝阳合生汇店),餐饮服务;冷饮店;冷饮店,北京城区西大望路甲22号院合生汇1号楼B1层B1-19号,116.479995,39.893618,北京市,北京市,朝阳区
漫咖啡MAAN COFFEE(望京店),餐饮服务;咖啡厅;咖啡厅,望京街200号,116.479045,40.000394,北京市,北京市,朝阳区
瑞幸咖啡(什刹海新地佰店),餐饮服务;咖啡厅;咖啡厅,地安门外大街31号1号楼新地佰商场负一层B1-21号,116.395390,39.937757,北京市,北京市,西城区
三元梅园(什刹海店),餐饮服务;冷饮店;冷饮店,北京城区地安门外大街31号新地佰地下一层,116.395340,39.937941,北京市,北京市,西城区
咪咕咖啡(首钢园店),餐饮服务;咖啡厅;咖啡厅,北辛安路金安科幻广场9号楼(金安桥地铁站K口步行300米),116.160900,39.919841,北京市,北京市,石景山区
ORIGINE-Coffee&Bistro,餐饮服务;咖啡厅;咖啡厅,光华北一街双花园南里三区19号楼1-101,116.459875,39.899062,北京市,北京市,朝阳区
喜茶(北京朝阳大悦城店B1层),餐饮服务;冷饮店;冷饮店,朝阳北路101号楼朝阳大悦城B1-11(青年路地铁站B东北口),116.519359,39.924000,北京市,北京市,朝阳区
瑞幸咖啡(合生汇店),餐饮服务;咖啡厅;咖啡厅,西大望路甲22号院1号楼商业部分一层21A-02号,116.480516,39.893876,北京市,北京市,朝阳区
星巴克(龙湖北京颐和星悦荟店),餐饮服务;咖啡厅;星巴克咖啡,北京城区颐和园路206号龙湖星悦荟L1-01-03号,116.289242,39.998359,北京市,北京市,海淀区
星巴克臻选(北京国贸四店),餐饮服务;咖啡厅;星巴克咖啡,建国门外大街1号国贸商城1期地下一层SB122A,116.458080,39.909573,北京市,北京市,朝阳区
福顶咖啡(雍和宫店),餐饮服务;咖啡厅;咖啡厅,五道营胡同26号(雍和宫地铁站G西南口步行150米),116.414555,39.948370,北京市,北京市,东城区
星巴克(常通路店),餐饮服务;咖啡厅;星巴克咖啡,龙湖长楹天街购物中心西区一层和二层,116.600360,39.925201,北京市,北京市,朝阳区
瑞幸咖啡(西直门凯德MALL 负一层店),餐饮服务;咖啡厅;咖啡厅,西直门外大街1号西直门凯德茂负一层55、56、57号,116.353246,39.942008,北京市,北京市,西城区
TIANROAST COFFEE(大望路店),餐饮服务;咖啡厅;咖啡厅,建外街道恒源路建国门外郎家园10号61幢1层A2-03,116.472422,39.907156,北京市,北京市,朝阳区
% Arabica阿拉比卡咖啡(白塔寺店),餐饮服务;咖啡厅;咖啡厅,白塔寺东夹道72号,116.363752,39.924447,北京市,北京市,西城区
星巴克(西直门凯德MALL店),餐饮服务;咖啡厅;星巴克咖啡,北京城区西直门外大街1号西环广场凯德MALL购物中心B1楼,116.353533,39.941924,北京市,北京市,西城区
萤火虫咖啡(砖著店),餐饮服务;咖啡厅;咖啡厅,西砖胡同甲19号(距地铁4/7线菜市口站D口西南口步行630m),116.370220,39.887096,北京市,北京市,西城区
瑞幸咖啡(南锣鼓巷店),餐饮服务;咖啡厅;咖啡厅,地安门东大街南锣鼓巷站一层108室,116.403498,39.933275,北京市,北京市,东城区
茉莉奶白(北京朝阳合生汇店),餐饮服务;冷饮店;冷饮店,西大望路21号北京合生汇B1层B1-29A,116.478337,39.893830,北京市,北京市,朝阳区
星巴克臻选(北京合生汇2店),餐饮服务;咖啡厅;星巴克咖啡,北京城区西大望路甲22号合生汇L1层L1-23,116.479304,39.893692,北京市,北京市,朝阳区
2333咖啡,餐饮服务;咖啡厅;咖啡厅,酒仙桥兆维工业园A2-2(将台地铁站A西北口步行320米),116.491615,39.973248,北京市,北京市,朝阳区
平行世界·猫咖(首经贸店),餐饮服务;咖啡厅;咖啡厅,首经贸北路万芳园13号楼9单元商业03(在底商区小区外面),116.315668,39.844783,北京市,北京市,丰台区
星巴克(光耀东方店),餐饮服务;咖啡厅;星巴克咖啡,羊坊店路18号光耀东方广场一层103单元,116.321932,39.899204,北京市,北京市,海淀区
JM Cafe(北锣店),餐饮服务;咖啡厅;咖啡厅,北锣鼓巷45号,116.402610,39.945003,北京市,北京市,东城区
桃囍咖食(观湖店),餐饮服务;咖啡厅;咖啡厅,北京城区西峪甲1号-3,117.099283,40.310409,北京市,北京市,平谷区
LAVAZZA拉瓦萨咖啡(北京方圆大厦店),餐饮服务;咖啡厅;咖啡厅,甘家口街道中关村南大街甲56号一层1002,116.329880,39.939081,北京市,北京市,海淀区
TOWN HOUSE 北欧咖啡(国子监店),餐饮服务;咖啡厅;咖啡厅,国子监街76号,116.409654,39.945367,北京市,北京市,东城区
霸王茶姬(五棵松华熙店),餐饮服务;冷饮店;冷饮店,北京城区复兴路69号16幢五棵松华熙-1层-101-057,116.278159,39.908937,北京市,北京市,海淀区
隆延茶铺(三里屯T+mall店),餐饮服务;冷饮店;冷饮店,北京城区三里屯一号场地下一层B1-18,116.454923,39.932212,北京市,北京市,朝阳区
文宇奶酪店(南锣鼓巷店),餐饮服务;甜品店;甜品店,南锣鼓巷49号,116.403112,39.938691,北京市,北京市,东城区
瑞幸咖啡(五棵松万达广场店),餐饮服务;咖啡厅;咖啡厅,复兴路69号3号楼一层101号,116.277485,39.913840,北京市,北京市,海淀区
奈雪的茶(北京朝阳合生汇店),餐饮服务;冷饮店;冷饮店,西大望路甲22号北京朝阳合生汇B1层,116.479394,39.893660,北京市,北京市,朝阳区
星巴克(西小口路店),餐饮服务;咖啡厅;星巴克咖啡,北京城区西小口路66号中关村东升科技园B区6号楼C座一层101室,116.356881,40.046884,北京市,北京市,海淀区
CHAGEE霸王茶姬(北京昌平合生汇店),餐饮服务;冷饮店;冷饮店,回龙观北清路1号珠江摩尔大厦旁北京超极合生汇负2层,116.293061,40.096678,北京市,北京市,昌平区
Basepoint(龙湾别墅店),体育休闲服务;体育休闲服务场所;体育休闲服务场所,北京城区空港街道龙湾七街1-A,116.510867,40.081409,北京市,北京市,顺义区
瑞幸咖啡(北京大学店),餐饮服务;咖啡厅;咖啡厅,颐和园路5号北京大学生命科学科研大楼吕志和楼负一层141号,116.313254,39.992661,北京市,北京市,海淀区
铁手咖啡友谊花园店,餐饮服务;咖啡厅;咖啡厅,北京城区建国门外大街17号22幢平房,116.442989,39.909894,北京市,北京市,朝阳区
星巴克(护国新天地店),餐饮服务;咖啡厅;星巴克咖啡,北京城区护国寺街85号11号楼1层F1-3单元,116.375230,39.935212,北京市,北京市,西城区
星巴克(北京西城远洋大厦店),餐饮服务;咖啡厅;星巴克咖啡,北京城区复兴门内大街158号远洋大厦首层G03A,116.360002,39.905754,北京市,北京市,西城区
星巴克臻选(北京太阳宫凯德店),餐饮服务;咖啡厅;星巴克咖啡,太阳宫中路12号凯德MALL1层44-45号,116.446731,39.971287,北京市,北京市,朝阳区
三元梅园(王府井店),购物服务;专卖店;专营店|风景名胜;风景名胜相关;旅游景点,王府井大街253号百货大楼B1层,116.410236,39.914013,北京市,北京市,东城区
星巴克(五道口购物中心店),餐饮服务;咖啡厅;星巴克咖啡,海淀街道府路28号五道口商城1层,116.339065,39.992428,北京市,北京市,海淀区
星巴克(新中关购物中心店),餐饮服务;咖啡厅;星巴克咖啡,北京城区中关村大街19号新中关大厦首层L128A号(近海淀医院),116.315725,39.978149,北京市,北京市,海淀区
沪上阿姨鲜果茶(北京荟聚购物中心店),餐饮服务;冷饮店;冷饮店,武宁街15号院1号楼3层03D81C(宜家对面),116.327353,39.788217,北京市,北京市,大兴区
脸红秦田田(合生汇店),餐饮服务;中餐厅;中餐厅,西大望路合生汇B1-21街区67B号,116.481210,39.893693,北京市,北京市,朝阳区
Cafe Zarah(鼓楼东大街店),餐饮服务;咖啡厅;咖啡厅,鼓楼东大街46号,116.406204,39.940746,北京市,北京市,东城区
星巴克(北京官舍万科公园五号店),餐饮服务;咖啡厅;星巴克咖啡,甜水西园17号楼1层101内01号,116.477753,39.925420,北京市,北京市,朝阳区
赛先生的咖啡馆·简餐(创富大厦店),餐饮服务;咖啡厅;咖啡厅,丹棱街18号创富大厦F1层,116.308033,39.978643,北京市,北京市,海淀区
Peet's Coffee皮爷咖啡(合生麒麟新天地店),餐饮服务;咖啡厅;咖啡厅,北京城区阜安西路11号楼1层01128室,116.478329,39.997202,北京市,北京市,朝阳区
星巴克(北京金融街金树街店),餐饮服务;咖啡厅;星巴克咖啡,北京城区金城坊街金融街公寓F座9-11号,116.361498,39.917285,北京市,北京市,西城区
Peet's Coffee 皮爷咖啡(环贸中心店),餐饮服务;咖啡厅;咖啡厅,北京城区北三环东路36号E座10房间,116.410670,39.966516,北京市,北京市,东城区
星巴克(龙湖北京大兴天街店),餐饮服务;咖啡厅;星巴克咖啡,北京城区永大路龙湖时代天街购物中心一层EF-59,116.320669,39.687721,北京市,北京市,大兴区
星巴克(国奥中心店),餐饮服务;咖啡厅;星巴克咖啡,北京城区林萃东路2号院甲3号楼国奥中心1层F106室,116.381397,40.009255,北京市,北京市,朝阳区
METAL铁手咖啡制造局 (白塔寺店),餐饮服务;咖啡厅;咖啡厅,新街口街道东岔86号、宫门口东岔86号1号房,116.362679,39.924170,北京市,北京市,西城区
TIANROAST咖啡体验馆(751店),餐饮服务;咖啡厅;咖啡厅,酒仙桥北路751D·PARKB7(奥迪办公楼南侧),116.499856,39.984231,北京市,北京市,朝阳区
瑞幸咖啡(新奥天虹店),餐饮服务;咖啡厅;咖啡厅,湖景东路9号新奥天虹商场B1层,116.394591,40.001496,北京市,北京市,朝阳区
爷爷不泡茶NOYEYENOTEA(北京合生汇店),餐饮服务;冷饮店;冷饮店,北京城区西大望路甲22号院1号楼-B1 层-105内-1层18B号,116.480226,39.893651,北京市,北京市,朝阳区
StillCoffee还是咖啡(大望路店),餐饮服务;咖啡厅;咖啡厅,建国路东郎电影创意产业园Y栋2层202号,116.472862,39.907223,北京市,北京市,朝阳区
CHAGEE霸王茶姬(新奥购物中心店),餐饮服务;冷饮店;冷饮店,北京城区新奥购物中心地下一层东B门下扶梯右手边,116.395874,40.000345,北京市,北京市,朝阳区
雕刻时光咖啡馆(北师大店),餐饮服务;咖啡厅;咖啡厅,学院南路甲10号,116.365898,39.957778,北京市,北京市,海淀区
星巴克臻选(北京凤凰汇店),餐饮服务;咖啡厅;星巴克咖啡,北京城区曙光西里甲5号院10号楼-17-1层17,116.455079,39.963292,北京市,北京市,朝阳区
HALF COFFEE(宏恩观店),餐饮服务;咖啡厅;咖啡厅,豆腐池胡同21号观中内,116.396149,39.943962,北京市,北京市,东城区
瑞幸咖啡(枢密院店),餐饮服务;餐饮相关场所;餐饮相关,嘉创路10号枢密院1号楼一层102号,116.544657,39.821622,北京市,北京市,通州区
Grid Coffee(北京奥森公园店),餐饮服务;餐饮相关场所;餐饮相关,科荟路27号,116.393065,40.011659,北京市,北京市,朝阳区
瑞幸咖啡(花乡奥莱村店),餐饮服务;冷饮店;冷饮店,南四环西路76号花乡奥莱村13号楼一层13101-Q号,116.323142,39.826228,北京市,北京市,丰台区
星巴克臻选(龙湖北京丽泽天街店),餐饮服务;咖啡厅;星巴克咖啡,丽泽路16号院1号楼首创龙湖北京丽泽天街一层1号门02号商铺,116.334140,39.867342,北京市,北京市,丰台区
星巴克咖啡(乐成中心SPACE3店),餐饮服务;咖啡厅;星巴克咖啡,北京城区东三环中路22号楼乐成中心1层1-15号(双井地铁站E口旁),116.462250,39.894473,北京市,北京市,朝阳区
星巴克(南锣鼓巷店),餐饮服务;咖啡厅;星巴克咖啡,北京城区南锣鼓巷20号,116.403402,39.939689,北京市,北京市,东城区
山喜之手作(合生汇店),餐饮服务;冷饮店;冷饮店,双井街道西大望路甲22号朝阳合生汇B1层02B,116.478319,39.894209,北京市,北京市,朝阳区
吾肆WUSI FLORA CAFE&BAR(胡同店),餐饮服务;咖啡厅;咖啡厅,方家胡同与公益巷交叉口东南20米,116.411338,39.943999,北京市,北京市,东城区
星巴克(合生麒麟新天地店),餐饮服务;咖啡厅;星巴克咖啡,北京城区望京街4号楼一层星巴克门店,116.477712,39.996653,北京市,北京市,朝阳区
星巴克臻选(北京华贸非遗概念店),餐饮服务;咖啡厅;星巴克咖啡,北京城区非遗店一楼外面(大望路地铁站H东北口步行190米),116.480054,39.909481,北京市,北京市,朝阳区
裕莲茶楼(北京朝阳大悦城店),餐饮服务;冷饮店;冷饮店,朝阳北路101号楼1层101内1F-02B,116.519164,39.923906,北京市,北京市,朝阳区
喜茶(北京昌平超极合生汇店),餐饮服务;冷饮店;冷饮店|餐饮服务;休闲餐饮场所;休闲餐饮场所,北清路1号院1号楼地下二层LG2-122,116.292079,40.096754,北京市,北京市,昌平区
帝星咖啡(望京南湖店),餐饮服务;咖啡厅;咖啡厅,北京城区南湖中园304号楼1层101内102、2层201,116.462402,39.993676,北京市,北京市,朝阳区
星巴克臻选北京安贞环宇荟店,餐饮服务;咖啡厅;星巴克咖啡,北京市安定路5号院6号楼L104-1号,116.406058,39.977548,北京市,北京市,朝阳区
Peet's Coffee皮爷咖啡(三里屯太古里南区店),餐饮服务;咖啡厅;咖啡厅,北京城区三里屯路19号院5号楼二层S05-2内S5-20单元,116.453703,39.935043,北京市,北京市,朝阳区
爷爷不泡茶NOYEYENOTEA(北京超极合生汇店),餐饮服务;冷饮店;冷饮店,北清路1号院超级合生汇LG2-78,116.292463,40.096868,北京市,北京市,昌平区
CHAGEE霸王茶姬(北京T+MALL店),餐饮服务;冷饮店;冷饮店,南三里屯路1号三里屯一号场T+MALLF1层,116.454950,39.932018,北京市,北京市,朝阳区
茶百道(北京荟聚店),餐饮服务;冷饮店;冷饮店,北京城区欣宁街15号北京荟聚中心L12层02E144A号,116.326285,39.786595,北京市,北京市,大兴区
星巴克(通州万达广场店),餐饮服务;咖啡厅;星巴克咖啡,北京城区新华西街58号通州万达广场1号楼一层1057号商铺,116.643173,39.905548,北京市,北京市,通州区
星巴克(枫蓝国际购物中心店),餐饮服务;咖啡厅;星巴克咖啡,北京城区西直门北大街32号院1号楼1层枫蓝国际,116.356037,39.953387,北京市,北京市,海淀区
星巴克臻选(望京凯德MALL店),餐饮服务;咖啡厅;星巴克咖啡,北京城区广顺北大街33号望京凯德MALL一层,116.468980,39.992932,北京市,北京市,朝阳区
奈雪的茶(北京超极合生汇店),餐饮服务;冷饮店;冷饮店|餐饮服务;糕饼店;糕饼店,北清路1号院1号地下二层LG2-84(靠近东区LG2商场服务台),116.292625,40.096396,北京市,北京市,昌平区
麦记牛奶(北京西单更新场店),餐饮服务;冷饮店;冷饮店,北京城区西单北大街180号华润置地西单更新场B104,116.375584,39.908596,北京市,北京市,西城区
星巴克(北京盈科中心咖啡店),餐饮服务;咖啡厅;星巴克咖啡,"北京城区工人体育场北路甲2号裙房01层103A单元及02层202A,203A单元",116.458071,39.932451,北京市,北京市,朝阳区
星巴克(北京未来中心咖啡店),餐饮服务;咖啡厅;星巴克咖啡,北京城区英才南一街3号院1号楼103,116.478123,40.116233,北京市,北京市,昌平区
LINLEE·手打柠檬茶(合生汇店),餐饮服务;冷饮店;冷饮店,北京城区西大望路21号合生汇B2层B2-K01,116.479836,39.893698,北京市,北京市,朝阳区
星巴克(丰科万达广场店),餐饮服务;咖啡厅;星巴克咖啡,丰科路6号万达广场1楼1056-1057号,116.298168,39.824427,北京市,北京市,丰台区
星巴克臻选(北京望京SOHO 2店),餐饮服务;咖啡厅;星巴克咖啡,北京城区阜通东大街1号院5号楼SOHOT3一层3118-3119,116.481090,39.995806,北京市,北京市,朝阳区
瑞幸咖啡(恒奥中心·冯唐主题店),餐饮服务;餐饮相关场所;餐饮相关,锦什坊街26号恒奥中心店C座一层大堂,116.363128,39.922369,北京市,北京市,西城区
JM Cafe(团结湖店),餐饮服务;咖啡厅;咖啡厅,北京城区东朗团结新里东门23号楼,116.469079,39.929687,北京市,北京市,朝阳区
星巴克(北京祥云东方苑二店),餐饮服务;咖啡厅;星巴克咖啡,北京城区安泰大街6号院中粮祥云小镇南区11号楼107号,116.537602,40.086350,北京市,北京市,顺义区
星巴克(北京西单北大街第二店),餐饮服务;咖啡厅;星巴克咖啡,北京城区西单北大街133号君太百货二层,116.373132,39.909857,北京市,北京市,西城区
% Arabica阿拉比卡咖啡(三里屯太古里南区店),餐饮服务;咖啡厅;咖啡厅,三里屯路19号三里屯太古里南区L1层,116.454790,39.935650,北京市,北京市,朝阳区
漫咖啡MAANCOFFEE(万象新天店),餐饮服务;咖啡厅;咖啡厅,北京城区常惠路3号楼1层1012层201,116.599049,39.929716,北京市,北京市,朝阳区
喜茶(北京蓝色港湾店),餐饮服务;冷饮店;冷饮店,朝阳公园路6号蓝色港湾室内步行街1F层SM1-553号,116.476423,39.949879,北京市,北京市,朝阳区
MOJO(中关村店),餐饮服务;咖啡厅;咖啡厅,中关村大街11号e世界财富中心F1层,116.314883,39.981645,北京市,北京市,海淀区
星巴克(首钢园店),餐饮服务;咖啡厅;星巴克咖啡,北京城区六工汇购物广场,116.154632,39.921361,北京市,北京市,石景山区
福叁咖啡(辛庄店),餐饮服务;咖啡厅;咖啡厅,辛庄村298号,116.436945,40.224276,北京市,北京市,昌平区
星巴克(北京金融大街店),餐饮服务;咖啡厅;星巴克咖啡,北京城区金融大家甲9号金融街中心1-101,116.358980,39.919490,北京市,北京市,西城区
隆延茶铺(学清路驹然店),餐饮服务;冷饮店;冷饮店,学清路甲8号E座一层驹然空间内,116.354674,40.009674,北京市,北京市,海淀区
星巴克(中航技广场店),餐饮服务;咖啡厅;星巴克咖啡,北京城区荣华南路15号院1号楼101-011室,116.517521,39.782128,北京市,北京市,大兴区
瑞幸咖啡(光华路SOHO二期店),餐饮服务;咖啡厅;咖啡厅,呼家楼街道光华路9号SOHO2E座,116.450973,39.914126,北京市,北京市,朝阳区
喜茶(北京新中关店·飞檐),餐饮服务;冷饮店;冷饮店,中关村大街19号新中关大厦首层L103号(北门入口处),116.315515,39.978462,北京市,北京市,海淀区
茉酸奶(北京三里屯SOHO店),餐饮服务;冷饮店;冷饮店,北京城区工人体育场北路8号院3号楼1层3110-1,116.453447,39.932574,北京市,北京市,朝阳区
星巴克(新光大中心artpark大融城店),餐饮服务;咖啡厅;星巴克咖啡,滨惠北一街新光大中心9B-112、215号,116.660988,39.916178,北京市,北京市,通州区
CHAGEE霸王茶姬(北京西直门凯德店),餐饮服务;冷饮店;冷饮店,西直门外大街1号凯德MALL-1层-101-B1-36A.36B号,116.353240,39.941370,北京市,北京市,西城区
星巴克(北京世东国际店),餐饮服务;咖啡厅;星巴克咖啡,广渠路18号世东国际1号楼1层105-106单元,116.502495,39.892201,北京市,北京市,朝阳区
星巴克(朝阳大悦城店),餐饮服务;咖啡厅;星巴克咖啡,北京城区朝阳北路101号楼朝阳大悦城5层48号商铺,116.518759,39.923885,北京市,北京市,朝阳区
脸红秦田田(五棵松华熙店),餐饮服务;中餐厅;中餐厅,北京城区复兴路69号,116.276436,39.908532,北京市,北京市,海淀区
星巴克(北京鲁谷远洋咖啡店),餐饮服务;咖啡厅;星巴克咖啡,玉泉路59号院1号楼远洋沁山水1层A001单元,116.252130,39.903525,北京市,北京市,石景山区
星巴克(华宇时尚购物中心店),餐饮服务;咖啡厅;星巴克咖啡,北京城区中关村南大街2号数码大厦B座华宇时尚购物中心内,116.323212,39.965198,北京市,北京市,海淀区
阿嬷手作(北京华贸店),体育休闲服务;休闲场所;休闲场所,北京城区skp北门旁边(茅台品藏馆华贸skp店对面),116.480548,39.910543,北京市,北京市,朝阳区
星巴克(北京望京东路咖啡店),餐饮服务;咖啡厅;星巴克咖啡,望京东园四区6号楼北望金辉大厦1层105单元,116.489020,40.002582,北京市,北京市,朝阳区
CoCo都可(新奥工美店),餐饮服务;冷饮店;冷饮店,天辰东路10号4幢-1层-110内K10,116.393511,40.001469,北京市,北京市,朝阳区
煮叶(国贸商城店),餐饮服务;中餐厅;中餐厅|餐饮服务;茶艺馆;茶艺馆,建国门外大街1号院1幢-01层-101内3B215铺位N17门进地下一层,116.459478,39.912462,北京市,北京市,朝阳区
星巴克臻选(北京清河万象汇1店),餐饮服务;咖啡厅;星巴克咖啡,北京城区清河中街68号北京清河万象汇西区首层L101号,116.332950,40.030440,北京市,北京市,海淀区
CHAGEE霸王茶姬(北京八达岭长城店),餐饮服务;冷饮店;冷饮店,S216八达岭长城(西侧),116.009287,40.356797,北京市,北京市,延庆区
喜茶(北京龙湖星悦荟店),餐饮服务;冷饮店;冷饮店,颐和园路200号等5幢龙湖·星悦荟A馆-L1-25,116.291033,39.997822,北京市,北京市,海淀区
瑞幸咖啡(外文大厦店),餐饮服务;餐饮相关场所;餐饮相关,西三环北路89号中国外文大厦B座1层01号,116.309129,39.934115,北京市,北京市,海淀区
星巴克咖啡(北京市潘家园旧货市场店),餐饮服务;咖啡厅;星巴克咖啡,潘家园街道潘家园路潘家园旧货市场北商房2-3号市场,116.457466,39.876051,北京市,北京市,朝阳区
星巴克(环洋大厦店),餐饮服务;咖啡厅;星巴克咖啡,北京城区上地东路1号1号院7号楼环洋大厦1层东101,116.302441,40.054002,北京市,北京市,海淀区
隆延茶铺(大望路SKPS店),餐饮服务;冷饮店;冷饮店,建国路86号SKP-S商场B1层,116.478980,39.907246,北京市,北京市,朝阳区
星巴克(北京惠新东街咖啡店),餐饮服务;咖啡厅;星巴克咖啡,北京城区惠新东街4号3号楼1层101单元,116.424476,39.987227,北京市,北京市,朝阳区
煮叶(五棵松万达广场店),餐饮服务;冷饮店;冷饮店,复兴路69号万达广场(五棵松店)1F层1052,116.277989,39.913137,北京市,北京市,海淀区
星巴克(国贸商城3期A座店),餐饮服务;咖啡厅;星巴克咖啡,北京城区国贸商城3期A座2层,116.458554,39.912774,北京市,北京市,朝阳区
瑞幸咖啡(望京凯德MALL-1F店),餐饮服务;咖啡厅;咖啡厅,广顺北大街33号院213号楼一层101内01-22号,116.468328,39.993411,北京市,北京市,朝阳区
COSTA COFFEE(雍和宫店),餐饮服务;咖啡厅;咖啡厅,雍和宫大街五道营胡同1-3号,116.416307,39.948466,北京市,北京市,东城区
星巴克(中邮保险玖安广场店),餐饮服务;咖啡厅;星巴克咖啡,北京城区安定门外大街208号中粮置地广场高塔1层1F-08商铺,116.408712,39.952047,北京市,北京市,东城区
星巴克(北京永定路咖啡店),餐饮服务;咖啡厅;星巴克咖啡,"北京城区永定路88号1层88-8室13/14号,2层88-10室16/17号",116.264993,39.904817,北京市,北京市,海淀区
瑞幸咖啡(长楹天街店),餐饮服务;咖啡厅;咖啡厅,常通路3号院长楹商业街西区商场外南面一层,116.598265,39.925031,北京市,北京市,朝阳区
